데이터기준일자,전화번호,대표자명,홈페이지주소,휴무일,공휴일운영종료시각,공휴일운영시작시각,주말운영종료시각,주말운영시작시각,평일운영종료시각,평일운영시작시각,수입차요금,레저용차요금,승합차요금,대형차요금,중형차요금,소형차요금,경차요금,전기승합자동차보유대수,전기승용자동차보유대수,승합차보유대수,승용차보유대수,자동차총보유대수,보유차고지수용능력,차고지지번주소,차고지도로명주소,경도,위도,소재지지번주소,소재지도로명주소,사업장구분,업체명,제공기관코드,제공기관명
2019-09-26,032-425-3366,,,,,,,,21:00,09:00,,,,,,,,0,0,9,81,90,,,인천광역시 미추홀구 연수구 테크노파크로164,126.691511,37.458011,,인천광역시 미추홀구 경인로 460(주안동),주사업장,이렌트카,3510500,인천광역시 미추홀구
2019-09-26,032-876-6700,,,,,,,,19:30,08:30,,,,,,,,0,0,4,48,52,,,인천광역시 미추홀구 한나루로460(주안동),126.6681086565,37.448037,,인천광역시 미추홀구 한나루로460(주안동),주사업장,해피렌트카,3510500,인천광역시 미추홀구
2019-09-26,032-888-5595,,,,,,,,20:00,08:30,,,,,,,,0,0,0,10,10,,,"인천광역시 서구 중봉대로 612번길 10-17,7층(청라타워돔)",126.672275,37.4440277536,,인천광역시 미추홀구 주승로17번길 5(주안동),영업소,팔도렌트카,3510500,인천광역시 미추홀구
2019-09-26,032-888-5595,,,,,,,,20:00,08:30,,,,,,,,0,0,2,77,79,,,인천광역시 미추홀구 낙섬서로49번길 30-9 외 1곳,126.6348239588,37.4547193951,,인천광역시 미추홀구 낙섬서로49번길 30-9(용현동),주사업장,팔도렌트카,3510500,인천광역시 미추홀구
2019-09-26,032-433-3005,,,,,,,,19:00,09:30,,,,,,,,0,0,0,90,90,,,인천광역시 연수구 테크노파크로 164,126.6985034712,37.4437012472,,"인천광역시 미추홀구 문화로51(관교동,301호)",주사업장,엠티렌터카,3510500,인천광역시 미추홀구
2019-09-26,032-462-7351,,,,,,,,19:00,09:00,,,,,,,,0,0,1,10,11,,,인천광역시 연수구 테크노파크로164,126.673065,37.438782,,"인천광역시 미추홀구 소성로228번길 11 (학익동, 103호)",영업소,가나다렌트카,3510500,인천광역시 미추홀구
2019-09-26,032-433-2324,,,,,,,,20:00,08:00,,,,,,,,0,0,1,29,30,,,인천광역시 연수구 테크노파크로164,126.690983,37.4501474881,,"인천광역시 미추홀구 경원대로752번길 19 (주안동, 110호)",주사업장,가나다렌트카,3510500,인천광역시 미추홀구
2019-09-10,1661-2202,함기석,,없음,18:00,09:00,18:00,09:00,18:00,09:00,0,0,120000,100000,70000,50000,30000,0,0,3,71,74,74,,서울특별시 양천구 가로공원로 72여울공영주차장(신월3동),126.7624671,37.516950,,"경기도 부천시 송내대로388,200동 406호(약대동 부천테크노파크2단지)",주사업장,㈜씨앤피렌터카,3860000,경기도 부천시
2019-09-10,070-7397-6001,김영진,,없음,09:00,09:00,09:00,09:00,09:00,09:00,0,0,320000,310000,180000,125000,95000,0,0,0,96,96,96,,경기도 부천시 원미구 상동로 84,126.7743758,37.5206360,,"경기도 부천시 신흥로413번길18,3층",주사업장,㈜한기련렌트카,3860000,경기도 부천시
2019-09-10,032-664-8890,김병환,,없음,21:00,08:30,21:00,08:30,21:00,08:30,0,0,110000,90000,60000,50000,40000,0,0,2,52,54,54,,"경기도 부천시 중동로254번길 90,(공영주차장 제4호)",126.7510500419,37.4902183582,,"경기도 부천시 부일로191번길 35, 상가동 지층9호(상동,반달마을)",주사업장,㈜한빛이엔지,3860000,경기도 부천시
2019-09-10,031-446-1469,한장한,,없음,00:00,00:00,22:00,09:00,22:00,09:00,0,0,110000,90000,70000,60000,50000,0,0,0,50,50,50,,"경기도 부천시 길주로77번길 55-25, 10층(상동, 대야복합타워)",126.750533,37.486917,,"경기도 부천시 송내대로33번길 48-5, 1층(송내동)",주사업장,(유)엠렌트카,3860000,경기도 부천시
2019-09-10,070-7644-7777,권중성,,없음,20:00,09:00,20:00,09:00,20:00,09:00,500000,0,120000,110000,70000,60000,50000,0,0,12,169,181,181,,경기도 부천시 중동로 254번길90 외,126.753272,37.489565,,경기도 부천시 부일로205번길 26,주사업장,세븐렌탈㈜,3860000,경기도 부천시
2019-09-10,032-322-7936,팽중원,,없음,18:00,09:00,18:00,09:00,18:00,09:00,200000,0,120000,115000,70000,55000,50000,0,0,13,316,329,329,,경기도 부천시  상동로 84 외,126.753470,37.504474,,경기도 부천시 상동로 84,주사업장,㈜피제이렌트카,3860000,경기도 부천시
2019-09-10,032-667-3506,김세훈,,없음,20:00,09:00,20:00,09:00,20:00,09:00,0,0,100000,0,75000,60000,0,0,0,4,81,85,85,,경기도 부천시 중동로254번길 90 외,126.750407,37.487187,,경기도 부천시 송내대로39번길 51,주사업장,㈜신한렌터카,3860000,경기도 부천시
2019-09-10,032-342-7008,김영일,,없음,00:00,00:00,00:00,00:00,18:00,09:00,200000,0,135000,135000,80000,65000,55000,0,0,9,156,165,165,,경기도 부천시 길주로77번길55-25,126.750689,37.5071995,,경기도 부천시 길주로77번길55-25,주사업장,㈜중호렌트카,3860000,경기도 부천시
2019-09-10,032-324-8885,김민곤,,없음,00:00,00:00,00:00,00:00,18:00,09:00,150000,0,100000,80000,60000,50000,40000,0,0,1,49,50,50,,서울특별시 강서구 마곡서로 101(동익드미라벨 주차타워),126.750689,37.5071995,,경기도 부천시 길주로77번길 55-25,주사업장,㈜마이카렌트카,3860000,경기도 부천시
2019-09-10,032-676-8340,이상래,,없음,20:00,09:00,20:00,09:00,20:00,09:00,0,0,130000,130000,80000,70000,60000,0,0,7,168,175,175,,경기도 부천시 상동로 84 외,126.7910101,37.5202524,,경기도 부천시 삼작로 265,주사업장,㈜케이렌트카,3860000,경기도 부천시
2019-09-10,032-613-3303,조근배,,없음,18:00,09:00,18:00,09:00,18:00,09:00,0,0,120000,120000,80000,60000,50000,0,0,5,166,171,171,,서울특별시 양천구 곰달래로3길13(신월동)마을마당공영주차장 외,126.7659619141,37.4917985689,,경기도 부천시 중동로 107,주사업장,㈜에이스렌트카,3860000,경기도 부천시
2019-09-10,032-329-1544,서영수,,없음,17:00,08:30,17:00,08:30,18:30,08:30,0,0,157500,186900,119000,70000,66500,0,0,0,72,72,72,,경기도 부천시 상동 545-13 (상록복합타워 상록주차장),126.779396,37.495525,,"경기도 부천시 옥산로 7, B동234호(중동,리첸시아)",주사업장,㈜카이스트,3860000,경기도 부천시
2019-09-10,032-675-1471,김용진,,없음,20:30,08:30,20:30,08:30,20:30,08:30,0,0,115000,115000,80000,60000,45000,0,0,7,150,157,157,,경기도 부천시 신흥로413번길 18 외,126.774735,37.518799,,경기도 부천시 신흥로 393번길 10(내동),주사업장,㈜하나렌트카,3860000,경기도 부천시
2019-09-30,02-2231-3736,,,,,,,,18:00,09:00,,,,,,,,0,0,141,4875,5016,,,서울특별시 중구 퇴계로90길 17,126.9884227638,37.5675013119,,서울특별시 중구 청계천로 100,주사업장,㈜조이렌트카,3010000,서울특별시 중구
2019-09-30,02-2256-5555,,,,,,,,18:00,09:00,,,,,,,,0,0,11,92,103,,,서울특별시 강남구 대치동 1000-4.5,127.0169482,37.5647291990,,서울특별시 중구 다산로42길 12,주사업장,㈜블루렌트카,3010000,서울특별시 중구
2019-09-30,02-6460-0711,,,,,,,,18:00,09:00,,,,,,,,0,0,212,2991,3203,,,서울특별시 마포구 신수동 448-15,126.9813652415,37.5630639040,,서울특별시 중구 남대문로 63,주사업장,㈜한진,3010000,서울특별시 중구
2020-01-09,063-653-7240,조규백,,,,,,,19:00,09:00,,,,,,,,0,0,2,6,8,13,전라북도 순창군 순창읍 복실리 280-2,전라북도 순창군 순창읍 신기길 31-3,127.1403049,35.3878719,전라북도 순창군 순창읍 복실리 280-2,전라북도 순창군 순창읍 신기길 31-3,영업소,뉴드림렌터카,4770000,전라북도 순창군
2020-01-09,063-652-2882,방봉선,,,,,,,19:00,09:00,,,,,,,,0,0,4,5,9,14,전라북도 순창군 순창읍 남계리 135-1,전라북도 순창군 순창읍 담순로 1421,127.1509592,35.37752958,전라북도 순창군 순창읍 남계리 135-1,전라북도 순창군 순창읍 담순로 1421,영업소,아이렌터카,4770000,전라북도 순창군
2019-05-28,070-7775-6700,,,,,,,,24:00,00:00,,,,,,,,0,0,36,14,50,,,경기도 하남시 신평로 84,127.2247522666,37.5340664008,경기도 하남시 창우동 200-4,경기도 하남시 천현로 146-1,주사업장,㈜애드플레이,4040000,경기도 하남시
2019-05-28,031-793-6766,,,,,,,,24:00,00:00,,,,,,,,0,0,3,36,39,,,경기도 하남시 신평로 84,127.2160018869,37.5411033118,경기도 하남시 신장동 523-1,경기도 하남시 대청로 33,주사업장,㈜알씨렌트카,4040000,경기도 하남시
2019-05-28,1661-1157,,,,,,,,24:00,00:00,,,,,,,,0,0,1,49,50,,,경기도 하남시 신평로 84,127.2069681571,37.5412059863,경기도 하남시 신장동 415-10,경기도 하남시 하남대로 815,주사업장,㈜스마트렌트카,4040000,경기도 하남시
2019-03-04,02-2140-5000,권남회,http://www.nhnetworks.co.kr,근무안함(전화업무만),00:00,00:00,17:00,08:00,19:00,08:00,00,00,00,00,00,00,00,00,00,22,13,35,1105,서울특별시 서초구 양재동 222,서울특별시 서초구 양재대로12길 18,126.968785,37.562314,서울특별시 서대문구 미근동 267 NH농협생명빌딩 서관 10층,"서울특별시 서대문구 통일로 81, 서관 10층(미근동, NH농협생명빌딩)",영업소,㈜농협네트웍스,3120000,서울특별시 서대문구
2019-03-04,02-1588-7905,김영만,http://www.odigarentcar.com/kr/,명절/추석,22:00,08:00,22:00,08:00,20:00,08:00,00,00,00,00,00,00,00,00,00,03,62,65,410,서울특별시 서대문구 청파동3가 118-102,서울특별시 서대문구 원효로 97길 50,126.968751,37.562350,서울특별시 서대문구 대현동 104-6,서울특별시 서대문구 신촌역로7,영업소,어디가렌트카,3120000,서울특별시 서대문구
2019-03-04,02-1588-7905,김영만,http://www.odigarentcar.com/kr/,명절/추석,22:00,08:00,22:00,08:00,20:00,08:00,00,00,00,00,00,00,00,00,00,00,0,0,300,서울특별시 서대문구 대현동 104-25,서울특별시 서대문구 연세로2다길 68,126.968751,37.562350,서울특별시 서대문구 대현동 104-6,서울특별시 서대문구 신촌역로7,영업소,어디가렌트카,3120000,서울특별시 서대문구
2019-03-04,02-1588-2204,최재현,www.rentcarplus.co.kr,명절 당일,20:00,09:30,20:00,09:30,20:00,09:00,00,00,00,00,00,00,00,00,00,00,37,37,330,서울특별시 서초구 방배동 1102번 산 195번지,서울특별시 서초구 명달로 45,126.941788,37.556831,서울특별시 서대문구 대현동 104-47,서울특별시 서대문구 신촌로 143-3,영업소,㈜제이앤제이렌트카,3120000,서울특별시 서대문구
2019-03-04,02-1588-2204,최재현,www.rentcarplus.co.kr,명절 당일,20:00,09:30,20:00,09:30,20:00,09:00,00,00,00,00,00,00,00,00,00,00,56,56,500,서울특별시 중구 중림동 150-1,서울특별시 중구 중림로 31,126.941788,37.556831,서울특별시 서대문구 대현동 104-47,서울특별시 서대문구 신촌로 143-3,영업소,㈜제이앤제이렌트카,3120000,서울특별시 서대문구
2019-03-04,02-1588-2204,최재현,www.rentcarplus.co.kr,명절 당일,20:00,09:30,20:00,09:30,20:00,09:00,00,00,00,00,00,00,00,00,00,02,19,21,114,"서울특별시 서대문구 대현동 104-40, 46-62",서울특별시 서대문구 신촌로 143-3,126.941788,37.556831,서울특별시 서대문구 대현동 104-47,서울특별시 서대문구 신촌로 143-3,영업소,㈜제이앤제이렌트카,3120000,서울특별시 서대문구
2019-03-04,02-418-3534,권영호,없음,상시,23:59,00:00,23:59,00:00,23:59,00:00,00,00,00,00,00,00,00,00,00,03,16,19,318.4,"서울특별시 서대문구 북가좌동 337-17 외3필지(32,33,34)","서울특별시 서대문구 북가좌동 337-17 외3필지(32,33,34)",126.914090,37.584323,서울특별시 서대문구 북가좌동 334-5,서울특별시 서대문구 응암로 131,영업소,하나로렌터카㈜,3120000,서울특별시 서대문구
2019-03-04,02-365-3311,양재근,www.newksrent.com,토요일일요일공휴일,00:00,00:00,00:00,00:00,18:00,09:00,00,00,00,00,00,00,00,00,00,01,25,26,350,서울특별시 송파구 가락동 95-6,서울특별시 송파구 가락동 95-6,126.958422,37.570089,서울특별시 서대문구 영천동 100 독립문삼호아파트상가 103호,"서울특별시 서대문구 독립문로 10, 103호(영천동 독립문삼호아파트상가)",영업소,뉴경성렌트카,3120000,서울특별시 서대문구
2019-03-04,02-365-3311,양재근,www.newksrent.com,토요일일요일공휴일,00:00,00:00,00:00,00:00,18:00,09:00,00,00,00,00,00,00,00,00,00,05,45,50,700,서울특별시 도봉구 창동 330(창동역주차장),서울특별시 도봉구 노해로 65길 17-6(창동역주차장),126.958422,37.570089,서울특별시 서대문구 영천동 100 독립문삼호아파트상가 103호,"서울특별시 서대문구 독립문로 10, 103호(영천동 독립문삼호아파트상가)",영업소,뉴경성렌트카,3120000,서울특별시 서대문구
2019-03-04,02-365-3311,양재근,www.newksrent.com,토요일일요일공휴일,00:00,00:00,00:00,00:00,18:00,09:00,00,00,00,00,00,00,00,00,00,60,64,124,2650,서울특별시 송파구 방이동 52-1(방이동주차장),서울특별시 송파구 백재고분로 481(방이동주차장),126.958422,37.570089,서울특별시 서대문구 영천동 100 독립문삼호아파트상가 103호,"서울특별시 서대문구 독립문로 10, 103호(영천동 독립문삼호아파트상가)",영업소,뉴경성렌트카,3120000,서울특별시 서대문구
2019-03-04,02-1670-7788,이봉학,http://www.8seasonrentcar.com/,근무안함(전화업무만),00:00,00:00,17:00,08:00,19:00,08:00,00,00,00,00,00,00,00,00,00,09,84,93,390,서울특별시 중랑구 면목동 183-14,서울특별시 중랑구 동일로109길 35 면목주차장,126.960360,37.564232,서울특별시 서대문구 충정로3가 3-90,"서울특별시 서대문구 경기대로9길 67, 101호",영업소,포시즌렌트카,3120000,서울특별시 서대문구
2019-03-04,02-1670-7788,이봉학,http://www.7seasonrentcar.com/,근무안함(전화업무만),00:00,00:00,17:00,08:00,19:00,08:00,00,00,00,00,00,00,00,00,00,01,31,32,130,서울특별시 중랑구 면목동 183-14,서울특별시 중랑구 동일로109길 35 면목주차장,126.960360,37.564232,서울특별시 서대문구 충정로3가 3-90,"서울특별시 서대문구 경기대로9길 67, 101호",영업소,포시즌렌트카,3120000,서울특별시 서대문구
2019-03-04,02-1670-7788,이봉학,http://www.6seasonrentcar.com/,근무안함(전화업무만),00:00,00:00,17:00,08:00,19:00,08:00,00,00,00,00,00,00,00,00,00,01,31,32,130,서울특별시 서초구 양재동 225-5 양재주차장,서울특별시 서초구 양재동 225-5,126.960360,37.564232,서울특별시 서대문구 충정로3가 3-90,"서울특별시 서대문구 경기대로9길 67, 101호",영업소,포시즌렌트카,3120000,서울특별시 서대문구
2019-06-20,02-1599-2924,,,,,,,,23:59,00:00,,,,,,,,0,0,78,4,82,,,서울특별시 서초구 명달로45 (방배동),127.075141,37.621287,,서울특별시 노원구 동일로 178길 10 201호(공릉동),주사업장,인천공항렌트카㈜,3100000,서울특별시 노원구
2019-06-20,02-1588-1517,,,,,,,,23:59,00:00,,,,,,,,0,0,1,51,52,,,서울특별시 서초구 명달로45 (방배동),127.053351,37.678559,,"서울특별시 노원구 동일로243길 29, 내제1호 3층 301호 (상계동)",주사업장,에이지렌트카㈜,3100000,서울특별시 노원구
2019-06-20,02-1577-7593,,,,,,,,23:59,00:00,,,,,,,,0,0,2,60,62,,,서울특별시 노원구 상계로10길 14,127.068288,37.655262,,"서울특별시 노원구 노원로 428, 202호 (상계동,상계2차중앙하이츠아파트상가)",주사업장,e-토이렌트카,3100000,서울특별시 노원구
2019-06-20,02-3292-1124,,,,,,,,23:59,00:00,,,,,,,,0,0,0,129,129,,,서울특별시 서초구 명달로45 (방배동),127.057615,37.629224,,"서울특별시 노원구 월계로 334, 318호(월계동, 그랑디오피스텔)",주사업장,에이티렌터카㈜,3100000,서울특별시 노원구
2019-06-20,02-932-2501,,,,,,,,23:59,00:00,,,,,,,,0,0,4,70,74,,,서울특별시 용산구 후암로28길 21,127.072895,37.659246,,"서울특별시 노원구 한글비석로 383, 117호(중계동,삼창타워프라자)",주사업장,㈜뉴스마일렌트카,3100000,서울특별시 노원구
2019-06-20,02-973-2222,,,,,,,,23:59,00:00,,,,,,,,0,0,9,74,83,,,서울특별시 동대문구 청계천로 525,127.075285,37.619789,,"서울특별시 노원구 동일로 1002, 202호 (공릉동)",주사업장,㈜크라운렌트카,3100000,서울특별시 노원구
2019-06-20,02-3391-8240,,,,,,,,23:59,00:00,,,,,,,,0,0,10,46,56,,,서울특별시 중랑구 사가정로 332,127.075168,37.660715,,서울특별시 노원구 덕릉로 703(중계동),주사업장,㈜새롬오토랜드,3100000,서울특별시 노원구
2019-06-20,02-990-2346,,,,,,,,23:59,00:00,,,,,,,,0,0,20,306,326,,,서울특별시 노원구 월계동 411-34,127.061664,37.621774,,서울특별시 노원구 월계동 411-34,주사업장,케이비오토렌트매니지먼트㈜,3100000,서울특별시 노원구
2019-06-20,02-953-8888,,,,,,,,23:59,00:00,,,,,,,,0,0,3,65,68,,,"서울특별시 양천구 중앙로29길 41 (신정동,다락골공영주차장)",127.075948,37.618437,,"서울특별시 노원구 동일로 986,102동 210호(공릉동, 프레미어스엠코)",주사업장,㈜허니문렌트카,3100000,서울특별시 노원구
2019-06-17,1577-2254,박문호,0,0,00:00,00:00,00:00,00:00,00:00,00:00,0,0,0,0,0,0,0,0,0,6,50,56,121,"강원도 태백시 황지북3길 7, 246-7, 10-1, 10-7강원도 태백시 태백로 748","강원도 태백시 황지북3길 7, 246-7, 10-1, 10-7강원도 태백시 태백로 748",128.989844,37.174721,강원도 태백시 황지로 186,강원도 태백시 황지로 186,주사업장,해피관광렌터카,4220000,강원도 태백시
2019-06-17,033-553-9766,박영남,0,0,00:00,00:00,00:00,00:00,00:00,00:00,0,0,0,0,0,0,0,0,0,6,71,77,104,강원도 태백시 동점동 300-1강원도 태백시 서황지로 74강원도 태백시 황지동 146-20,강원도 태백시 동점동 300-1강원도 태백시 서황지로 74강원도 태백시 황지동 146-20,128.992243,37.176784,강원도 태백시 황지동 20-1,강원도 태백시 태백로 913,주사업장,건아통운렌터카,4220000,강원도 태백시
2019-08-30,032-572-2288,,,일,,,17:30,08:30,17:30,08:30,,,,,,,,0,0,2,52,54,,,인천광역시 서구 가좌로83번길 22,126.675313,37.5010620,,인천광역시 서구 석남로 121,주사업장,㈜신현대렌트카,3560000,인천광역시 서구
2019-08-30,032-573-0666,,,일,,,16:00,09:00,18:30,09:00,,,,,,,,0,0,3,58,61,,,인천광역시 서구 보도진로 49,126.653362,37.494759,,인천광역시 서구 보도진로 49,주사업장,㈜에이스랜트,3560000,인천광역시 서구
2019-05-31,02-501-5766,,,,,,,,18:00,09:00,,,,,,,0,0,0,0,25,25,,,서울특별시 동작구 사당동 318-12,126.987965,37.467123,,서울특별시 서초구 과천대로 840(방배동),주사업장,빌림,3210000,서울특별시 서초구
2019-08-30,032-563-4972,,,연중무휴,,,16:00,08:30,18:00,08:30,,,,,,,,0,0,3,32,35,,인천광역시 서구 경서동 997,인천광역시 서구 검단로459번길 4,126.652573617,37.5521567291,인천광역시 서구 경서동 346-6,인천광역시 서구 경명대로 398,주사업장,㈜행운렌트카,3560000,인천광역시 서구
2019-08-30,032-569-0082,,,"토,일",,,,,18:00,09:00,,,,,,,,0,0,17,168,185,,,"인천광역시 서구 봉수대로 1601, 1603",126.6399212,37.6138861,인천광역시 서구 금곡동 356-11,인천광역시 서구 봉수대로 1601,주사업장,장기렌트카(주),3560000,인천광역시 서구
2019-08-30,032-505-8311,,,일,,,15:00,09:00,19:00,09:00,,,,,,,,0,0,0,67,67,,,인천광역시 서구 검단로459번길 4,126.682006,37.482664,,인천광역시 서구 가좌동 295,주사업장,㈜세원렌트카,3560000,인천광역시 서구
2019-08-30,032-882-0106,,,일,,,19:00,09:00,19:00,09:00,,,,,,,,0,0,12,181,193,,,인천광역시 서구 건지로 186,126.662709,37.4985641,,인천광역시 서구 봉수대로 254-1,주사업장,㈜엔아이씨이새인천렌트카,3560000,인천광역시 서구
2019-08-30,032-1544-7194,,,일,,,15:00,08:00,18:00,08:00,,,,,,,,0,0,70,1,71,,,인천광역시 서구 보듬5로 5,126.673336,37.5585643,,"인천광역시 서구 승학로 414, 2층(검암동, 홍심빌딩)",주사업장,㈜제이에스밴,3560000,인천광역시 서구
2019-10-03,1566-0055,,,,,,,,18:00,09:00,,,,,,,,0,0,0,220,220,,,서울특별시 양천구 월정로 257,126.9822921008,37.5683727154,,서울특별시 중구 남대문로 125,주사업장,㈜디지비캐피탈,3010000,서울특별시 중구
2019-10-02,02-3141-2345,,,,,,,,18:00,09:00,,,,,,,,0,0,5,84,89,,,서울특별시 양천구 신월동 21-1,127.0056761477,37.5471680348,,서울특별시 중구 다산로 32,주사업장,브이아이피리모렌터카㈜,3010000,서울특별시 중구
2019-10-01,02-6456-2299,,,,,,,,18:00,09:00,,,,,,,,0,0,0,57,57,,,서울특별시 성북구 보문로 168,126.9737528146,37.5555048939,,서울특별시 중구 한강대로 416,주사업장,메르세데스벤츠모빌리티코리아㈜,3010000,서울특별시 중구
2019-09-30,1577-5822,,,,,,,,18:00,09:00,,,,,,,,0,0,0,1903,1903,,,서울특별시 송파구 법원로4길 17,126.9829327,37.5602013,,서울특별시 중구 퇴계로 100,주사업장,㈜비엠더블유파이낸셜서비스코리아,3010000,서울특별시 중구
2019-09-30,02-720-0300,,,,,,,,18:00,09:00,,,,,,,,0,0,25,281,306,,,서울특별시 강서구 마곡서로 101,126.9689803,37.5640199615,,서울특별시 중구 서소문로9길 41-10,주사업장,㈜제일렌트카,3010000,서울특별시 중구
2019-09-30,02-512-7926,,,,,,,,18:00,09:00,,,,,,,,0,0,4,434,438,,,서울특별시 광진구 자양로 120,127.0096258,37.5552085,,서울특별시 중구 동호로 195-7,주사업장,㈜대영렌트카,3010000,서울특별시 중구
2019-09-30,02-2254-2225,,,,,,,,18:00,09:00,,,,,,,,0,0,2,75,77,,,서울특별시 양천구 신정로 167,127.0077183,37.5515323549,,서울특별시 중구 다산로 77,주사업장,㈜렌트투어,3010000,서울특별시 중구
2019-09-30,02-2069-1124,,,,,,,,18:00,09:00,,,,,,,,0,0,22,89,111,,,서울특별시 강서구 마곡서로 101,126.9726726,37.5630153591,,서울특별시 중구 서소문로 103,주사업장,㈜성원렌트카,3010000,서울특별시 중구
2019-09-30,02-720-0339,,,,,,,,18:00,09:00,,,,,,,,0,0,6,89,95,,,서울특별시 영등포구 영등포로4가 123,126.9682129,37.5608194199,,서울특별시 중구 청파로 464,주사업장,㈜새한렌트카,3010000,서울특별시 중구
2019-09-30,02-579-0010,,,,,,,,18:00,09:00,,,,,,,,0,0,102,558,660,,,서울특별시 영등포동 영등포동4가 123,126.9689803,37.5640199615,,서울특별시 중구 서소문로9길 41-10,주사업장,㈜푸른솔관광,3010000,서울특별시 중구
2019-04-30,031-715-6611,,,,,,,,19:00,09:00,,,,,,,,0,0,5,26,31,40,경기도 성남시 분당구 수내동 9-4 현대오피스빌딩 초림주차장 2층,경기도 성남시 분당구  황새울로240번길 3,127.1115452,37.35080852,경기도 성남시 분당구 금곡동 150번지 미금파크빌딩 816호,경기도 성남시 분당구 성남대로 172번길24(금곡동) 미금파크빌딩 816호,주사업장,㈜카보스렌터카,3780000,경기도 성남시
2019-04-30,031-759-0500,,,,,,,,19:00,09:00,,,,,,,,0,0,6,45,51,51,경기도 성남시 분당구 판교로182-7 석란빌딩,경기도 성남시 분당구 판교로 182-7,127.1285767,37.43097235,경기도 성남시 중원구 성남동 4169번지 메트로 426호,"경기도 성남시 중원구 성남대로1133426호(성남동, 메트로)",주사업장,㈜진렌트카,3780000,경기도 성남시
2019-04-30,031-719-7254,,,,,,,,19:00,09:00,,,,,,,,0,0,0,50,50,50,"경기도 성남시 분당구 운중로277번길 45, 3∼4층",경기도 성남시 분당구 판교동 620,127.115214,37.38019603,경기도 성남시 분당구 수내동 9-3번지 2층,경기도 성남시 분당구 황새울로 246 2층,주사업장,㈜에스와이렌트카,3780000,경기도 성남시
2019-04-30,031-721-0570,,,,,,,,19:00,09:00,,,,,,,,0,0,6,52,58,58,"경기도 성남시 분당구 구미동 182, 5층",경기도 성남시 분당구 구미로9번길 25,127.1330467,37.44160836,경기도 성남시 수정구 태평동 3678번지 주민신협행복빌딩 402호,경기도 성남시 수정구 수정로 115-1 402호(태평동),주사업장,㈜신협우리들렌트카,3780000,경기도 성남시
2019-04-30,1577-8370,,,,,,,,19:00,09:00,,,,,,,,0,0,0,30,30,30,경기도 성남시 분당구 대왕판교로 606번길,경기도 성남시 분당구 대왕판교로 606번길,127.1070693,37.42124447,경기도 성남시 수정구 시흥동 40-4번지,경기도 성남시 수정구 여수대로56번길17,주사업장,㈜성일렌트카,3780000,경기도 성남시
2019-04-30,031-747-9575,,,,,,,,19:00,09:00,,,,,,,,0,0,2,52,54,54,경기도 성남시 수정구 신흥3동 2563,경기도 성남시 수정구 공원로339번길 17,127.1487326,37.44238292,경기도 성남시 수정구 신흥동 2563번지,경기도 성남시 수정구 공원로 339번길 17(신흥동),주사업장,㈜성남렌트카,3780000,경기도 성남시
2019-04-30,031-1234-2345,,,연중무휴,15:00,10:00,17:00,10:00,19:00,09:00,,,,,,,,0,0,2,48,50,50,경기도 성남시 분당구 구미동 182 (분당대맥주차빌딩),경기도 성남시 중원구 성남대로23,127.1294066,37.38025378,경기도 성남시 분당구 서현동 93번지 현대카스스포콤 508호,경기도 성남시 분당구 중앙공원로 40번길4 (서현동) 현대카스스포콤 508호,주사업장,㈜삼성통운,3780000,경기도 성남시
2019-04-30,1644-7301,,,,,,,,19:00,09:00,,,,,,,,0,0,1,60,61,61,경기도 성남시 수정구 수진동 4509 풍생레포츠주차장 50면,경기도 성남시 수정구 제일로109번길 13,127.105387,37.34403825,경기도 성남시 분당구 구미동 18번지 시그마타운 G동 107호,경기도 성남시 분당구 탄천상로164번지(구미동) 시그마타운 G-107,주사업장,㈜렌트114,3780000,경기도 성남시
2019-04-30,031-8016-9798,,,,,,,,19:00,09:00,,,,,,,,0,5,7,45,57,57,경기도 성남시 분당구 궁내동 360-9,경기도 성남시 분당구 궁내동 360-9,127.1009993,37.37822754,,"경기도 성남시 성남시 분당구 대왕판교로 385번길8, 2층",주사업장,㈜드림뷰렌트카,3780000,경기도 성남시
2019-04-30,031-709-0603,,,,,,,,19:00,09:00,,,,,,,,0,0,27,137,164,164,경기도 성남시 분당구 황새울로 240번길 3 현대오피스빌딩 초림주차장(지하2층),경기도 성남시 분당구 수내동 9-4,127.1281867,37.4108514,경기도 성남시 중원구 여수동 189번지 씨티오피스타워 901호,"경기도 성남시 중원구 양현로411, 901호 여수동,씨티오피스타워",주사업장,㈜동산렌트카,3780000,경기도 성남시
2019-04-30,031-754-5555,,,,,,,,19:00,09:00,,,,,,,,0,0,3,64,67,67,경기도 성남시 중원구 보통골로 14번길 8,경기도 성남시 중원구 상대원동 378-12,127.1807287,37.4347027,경기도 성남시 중원구 상대원동 378-12번지,경기도 성남시 중원구 보통골로 14번길 8,주사업장,㈜경진렌트카,3780000,경기도 성남시
2019-05-23,031-390-4444,,,,,,,,20:00,09:00,,,,,,,,0,0,3,57,60,,,경기도 군포시 삼성로 4-5(부곡동),126.9470623,37.36225197,경기도 군포시 금정동 772-2번지,경기도 군포시 군포로 633,주사업장,제이비렌트카,4020000,경기도 군포시
2019-05-23,031-360-8888,,,,,,,,20:00,09:00,,,,,,,,0,0,4,120,124,,,경기도 군포시 군포로528번길18(당동),126.9347088,37.3366492,경기도 군포시 부곡동 1218-3번지 드림시티 4층 400호,경기도 군포시 삼성로8번길 4-5,주사업장,금봉렌트카,4020000,경기도 군포시
2019-06-17,063-626-7078,유염무,https://8881rent.modoo.at/,연중무휴,18:30,08:30,18:30,08:30,18:30,08:30,,,100000,100000,70000,,,0,0,2,4,6,10,전라북도 남원시 도통동 496-9,전라북도 남원시 춘향로 88,127.3936022,35.4223860,전라북도 남원시 도통동 496-9,전라북도 남원시 춘향로 88,영업소,(유)그린렌트,4700000,전라북도 남원시
2019-06-17,02-6240-0576,윤규선,www.ajrentacar.co.kr,연중무휴,18:30,08:30,18:30,08:30,18:30,08:30,,,,,,,,0,0,263,4168,4431,,전라북도 남원시 운봉읍 북천리 486,전라북도 남원시 운봉읍 새연동길 84-11,127.382113,35.4493591,"전라북도 남원시 향교동 285, 상가동지하1층 비117호","전라북도 남원시 동림로 129, 상가동지하1층 B117호",영업소,AJ렌트카,4700000,전라북도 남원시
2019-06-17,063-636-4972,강권영,www.yrentcar.kr,연중무휴,18:00,08:00,18:00,08:00,18:00,08:00,,,130000,130000,80000,,,0,0,3,17,20,30,전라북도 남원시 주천면 호기리 265-2,전라북도 남원시 주천면 원천로 420-5,127.390661,35.3972100,전라북도 남원시 도통동 345,전라북도 남원시 충정로 181,영업소,㈜와이렌트카,4700000,전라북도 남원시
2019-06-17,063-631-1001,김석기,,연중무휴,19:00,08:30,19:00,08:30,19:00,08:30,,,120000,120000,80000,,,0,0,3,9,12,20,전라북도 남원시 향교동 121-1,전라북도 남원시 네마실 4길 45-6,127.377833,35.4186399,전라북도 남원시 하정동 215-3,전라북도 남원시 광한서로 87,영업소,(유)삼일렌트카,4700000,전라북도 남원시
2019-06-17,063-632-2020,최명진,www.autorentcar.co.kr,연중무휴,20:00,08:00,20:00,08:00,20:00,08:00,,,130000,130000,100000,,,0,0,2,10,12,17,전라북도 남원시 도통동 505-6,전라북도 남원시 충정로 166,127.390718,35.4189408,전라북도 남원시 도통동 505-6,전라북도 남원시 충정로 166,영업소,(유)오토렌트카,4700000,전라북도 남원시
2019-06-17,063-626-1221,김숙자,www.gagalentcar.co.kr,일요일,,,19:00,08:00,19:00,08:00,250000,,130000,120000,80000,,,0,0,4,16,20,15,전라북도 남원시 동충동 436-1,전라북도 남원시 충정로 32,127.379931,35.4108610,전라북도 남원시 동충동 436-1,전라북도 남원시 충정로 32,영업소,㈜가가렌트카,4700000,전라북도 남원시
2019-07-01,1661-0946,최을용,,,,,,,22:00,10:00,,,,,,,,0,0,3,114,117,117,,인천광역시 서구 완정로165번길 8,126.702051,37.4545232,,"인천광역시 남동구 예술로 230, 108호(구월동, 청진네오스빌)",주사업장,(주)넘버원렌트카,3530000,인천광역시 남동구
2019-07-01,032-422-0093,김영주,,,,,,,00:00,00:00,,,,,,,,0,0,1,61,62,62,,인천광역시 연수구 테크노파크로 164,126.708132,37.4012671,,"인천광역시 남동구 호구포로 201, 405호(논현동, 두손지젤타워)",주사업장,(주)뉴월드렌트카,3530000,인천광역시 남동구
2019-07-01,032-423-0301,최양순,,,,,,,20:00,08:30,,,,,,,,0,0,3,80,83,83,인천광역시 강화군 양도면 삼흥리 691-1,,126.695001,37.4650872,,"인천광역시 남동구 석정로 540-6, 상가 201호(간석동, 행복누리움)",주사업장,(주)메트로렌탈엔투어,3530000,인천광역시 남동구
2019-08-29,061-753-1599,,,,,,,,23:59,00:00,,,,,,,,0,0,0,44,44,658,,전라남도 순천시 해룡면 남가리 61-3,127.4888248,34.952518,,전라남도 순천시 남문천변길 62(장천동),주사업장,㈜천하    렌트카,4820000,전라남도 순천시
2019-08-29,061-751-6380,,,,,,,,23:59,00:00,,,,,,,,0,0,2,14,16,200,,전라남도 순천시 서면 압곡길 44,127.5208044,34.984634,,전라남도 순천시 서면 압곡길 44,주사업장,㈜씨엘씨,4820000,전라남도 순천시
2019-08-29,000-0000-0000,,,,,,,,23:59,00:00,,,,,,,,0,0,0,0,0,655,,"전라남도 순천시 상사면 흘산리 426-11, 467-12",127.5224718,34.969655,,전라남도 순천시 왕지로 2,영업소,(주)에이스투어렌터카,4820000,전라남도 순천시
2019-08-29,061-751-5655,,,,,,,,23:59,00:00,,,,,,,,0,0,2,40,42,155,,전라남도 순천시 환선로 67(매곡동),127.4873727,34.961455,,전라남도 순천시 환선로 67(매곡동),주사업장,(주)에이스투어렌터카,4820000,전라남도 순천시
2019-08-29,000-0000-0000,,,,,,,,23:59,00:00,,,,,,,,0,0,0,0,0,491.5,,전라남도 순천시 조례동 1702-9,127.5198176,34.955299,,전라남도 순천시 조례동 1702-9,영업소,(유)고려렌트카,4820000,전라남도 순천시
2019-08-29,000-0000-0000,,,,,,,,23:59,00:00,,,,,,,,0,0,0,0,0,447,,전라남도 순천시 연향동 1692-5,127.5138746,34.933692,,전라남도 순천시 연향동 1692-5,영업소,(유)고려렌트카,4820000,전라남도 순천시
2019-08-29,061-726-5555,,,,,,,,23:59,00:00,,,,,,,,0,0,7,25,32,188,,전라남도 순천시 연향동 1664-2,127.5136109460,34.9326616072,,전라남도 순천시 팔마1길 5,주사업장,(유)고려렌트카,4820000,전라남도 순천시
2019-08-29,000-0000-0000,,,,,,,,23:59,00:00,,,,,,,,0,0,0,0,0,396,,전라남도 순천시 연자로 31(동외동),127.4874907,34.955495,,전라남도 순천시 연자로 31(동외동),영업소,(유)현대렌트카,4820000,전라남도 순천시
2019-08-29,061-745-4003,,,,,,,,23:59,00:00,,,,,,,,0,0,9,26,35,221.07,,전라남도 순천시 팔마로 25(장천동),127.4911867,34.9468004,,전라남도 순천시 팔마로 25(장천동),주사업장,(유)현대렌트카,4820000,전라남도 순천시
2019-10-08,062-233-8288,정상현,없음,없음,22:00,09:00,21:00,09:00,22:00,09:00,0,0,,150000,80000,50000,40000,0,0,1,130,131,2113,광주광역시 서구 덕흥동 22-4,광주광역시 서구 덕흥1길 29,126.9200855,35.1447861,,광주광역시 동구 문화전당로 26번길 4,주사업장,(주)대광렌트카,3590000,광주광역시 동구
2019-10-08,062-233-8510,임종철,없음,없음,22:00,09:00,21:00,09:00,22:00,10:00,0,0,,100000,70000,50000,40000,0,0,3,76,79,2470,광주광역시 동구 용산동 149-1,광주광역시 동구 화산로 318-17,126.9317400054,35.11762746,,"광주광역시 동구 화산로 318-17, 2층(용산동)",주사업장,(유)이지렌트카,3590000,광주광역시 동구
2019-10-08,062-521-0005,김승남,없음,없음,22:00,09:00,21:00,09:00,22:00,09:00,0,0,,150000,70000,50000,40000,0,0,7,73,80,1580,광주광역시 광산구 송학동 246,광주광역시 광산구 삼도송계안길 46-20,126.931184,35.1460869,,광주광역시 동구 지산로 21,주사업장,(주)태현렌트카,3590000,광주광역시 동구
2019-10-08,062-228-3888,이화호,없음,없음,22:00,09:00,22:00,09:00,22:00,09:00,0,0,,100000,80000,50000,0,0,0,6,46,53,1409,광주광역시 광산구 동림동 89-1,광주광역시 광산구 본량동산길 93,126.9270926,35.1456001,,"광주광역시 동구 필문대로 289번길 2-2(서석동, 2층)",주사업장,(유)태양렌트카,3590000,광주광역시 동구
2019-05-31,02-1644-1606,구옥향,smrentcar.co.kr,없음,21:00,09:00,21:00,09:00,19:00,09:00,0,0,120000,100000,70000,60000,50000,0,0,7,50,57,,서울특별시 서초구 양재동 225,서울특별시 서초구 양재대로 12길 25,127.0237110143,37.6377262949,서울특별시 강북구 수유동 229-18,서울특별시 강북구 도봉로83길 20,주사업장,㈜예성렌트카,3080000,서울특별시 강북구
2019-05-31,02-995-9999,박성호,www.abcrent.co.kr,없음,22:00,09:00,22:00,09:00,22:00,09:00,0,0,0,80000,55000,40000,30000,0,0,0,121,121,54,서울특별시 도봉구 창동 700-26,서울특별시 도봉구 노해로61길 1,127.0266075785,37.6268850154,서울특별시 강북구 미아동 197-17,서울특별시 강북구 솔매로49길 9,주사업장,에이원렌트카,3080000,서울특별시 강북구
2019-06-19,061-332-1230,강하영,,,,,,,18:00,09:00,,,,,,,,0,0,0,0,0,,,전라남도 영암군 영암읍 낭주로 163,126.702073,34.797136,,전라남도 영암군 영암읍 동문로 15,영업소,(주)태준렌트카,4940000,전라남도 영암군
2019-06-19,1599-9111,"최신원, 박상규",,,,,,,18:00,09:00,,,,,,,,0,28,383,21971,22354,,전라남도 영암군 삼호읍 삼포리 1894,,126.697777,34.800635,,전라남도 영암군 영암읍 군청로 1-9,영업소,SK네트웍스(주),4940000,전라남도 영암군
2019-06-19,062-511-7210,박해승,,,,,,,18:00,09:00,,,,,,,,0,0,4,77,81,,전라남도 영암군 삼호읍 삼포리 1898,,126.687984,34.874279,,전라남도 영암군 신북면 예향로 2368,영업소,명가렌트카,4940000,전라남도 영암군
2019-06-19,062-714-1815,임동찬,,,,,,,18:00,09:00,,,,,,,,0,0,1,56,57,,전라남도 영암군 군서면 동구림리 485-9,,126.654744,34.776311,,전라남도 영암군 군서면 군서공단로 60-10,영업소,(주)채움씨앤씨,4940000,전라남도 영암군
2019-04-30,031-706-6333,,,,,,,,19:00,09:00,,,,,,,,0,0,3,93,96,96,경기도 성남시 분당구 서현동 136-3,경기도 성남시 분당구 구미로9번길 25,127.1368928,37.38397636,경기도 성남시 분당구 서현동 136-3번지,경기도 성남시 분당구 새마을로 51번길9-3(서현동),주사업장,㈜한길렌트카,3780000,경기도 성남시
2019-04-30,031-721-6838,,,,,,,,19:00,09:00,,,,,,,,0,0,4,39,43,50,"경기도 성남시 성남시 중원구 도촌로 8번길 5 (도촌동, 래일스타 P01호)",경기도 성남시 중원구 도촌동 579,127.151074,37.4149179,경기도 성남시 중원구 도촌동 579번지 레일스타 201호,"경기도 성남시 중원구 도촌로 8번길5,201호 (도촌동 레일스타)",주사업장,㈜필립모터스,3780000,경기도 성남시
2019-04-30,031-759-9088,,,,,,,,19:00,09:00,,,,,,,,0,0,8,149,167,167,경기도 성남시 분당구 수내동9-4 현대오피스 초림주차장(6층),경기도 성남시 분당구  황새울로240번길 3,127.1265038,37.4599326,경기도 성남시 수정구 복정동 677-8번지 동광빌딩 4층,경기도 성남시 수정구 복정로 77(복정동)동광빌딩4층,주사업장,㈜티엔비렌트카,3780000,경기도 성남시
2019-04-30,031-715-8855,,,,,,,,19:00,09:00,,,,,,,,0,0,0,10,10,10,경기도 성남시 분당구 금곡동 150번지 미금파크 6층,경기도 성남시 분당구 성남대로172번길 24,127.1115452,37.35080852,경기도 성남시 분당구 금곡동 150번지 미금파크빌딩 726호,경기도 성남시 분당구 성남대로 172번길24(금곡동) 미금파크빌딩 726호,주사업장,㈜태경렌트카,3780000,경기도 성남시
2019-04-30,1899-3408,,,,,,,,19:00,09:00,,,,,,,,0,0,0,60,60,60,경기도 성남시 분당구 정자일로227(백궁지엔느) 5~7층,경기도 성남시 분당구 정자동 12-1,127.1148132,37.3706093,경기도 성남시 분당구 정자동 54-1번지 404-1호,"경기도 성남시 분당구 내정로 113번길4, 404-1호",주사업장,㈜커뮤니카,3780000,경기도 성남시
2019-04-30,031-708-8550,,,,,,,,19:00,09:00,,,,,,,,0,0,2,96,98,98,경기도 성남시 성남시 분당구 정자일로 227,경기도 성남시 정자동 12-1,127.1181832,37.4013355,경기도 성남시 분당구 야탑동 165번지 목련마을 상가동 104호,"경기도 성남시 분당구 판교로 607,상가동104호 (야탑동 목련마을)",주사업장,㈜카엔퍼블릭,3780000,경기도 성남시
2019-05-31,02-599-0333,,,,,,,,19:00,09:00,,,,,,,0,0,0,0,10,10,,광주광역시 동구 금동 41외 5필지,광주광역시 동구 백서로119번길 21(금동),126.850875,35.157482,,"광주광역시 서구 시청로 97, 1511호(치평동, 중흥S클래스스카이31)",영업소,투투렌트카,3210000,서울특별시 서초구
2019-05-31,02-599-0333,,,,,,,,19:00,09:00,,,,,,,0,0,0,0,10,10,,,대전광역시 서구 둔산남로 50(탄방동),127.387637,36.429866,,"대전광역시 유성구 테크노1로 12-22, A동 103호(관평동, 디티비안오피스텔)",영업소,투투렌트카,3210000,서울특별시 서초구
2019-05-31,02-599-0333,,,,,,,,19:00,09:00,,,,,,,0,0,0,0,5,5,,,경상남도 창원시 성산구 마디미로38번길 11 코끼리주차장 7층(상남동),128.592383,35.221978,,경상남도 창원시 마산회원구 양덕로13 703호(양덕동),영업소,투투렌트카,3210000,서울특별시 서초구
2019-05-31,02-599-0333,,,,,,,,19:00,09:00,,,,,,,0,0,0,0,10,10,,부산광역시 사상구 괘법동 537-3,부산광역시 사상구 사상로212번길 32(괘법동),129.127418,35.157325,,"부산광역시 수영구 광안해변로 311, 제1층122, 122-1, 122-2, 122-3호",영업소,투투렌트카,3210000,서울특별시 서초구
2019-05-31,02-599-0333,,,,,,,,19:00,09:00,,,,,,,0,0,0,0,5,5,,인천광역시 연수구 송도동 24-5,인천광역시 연수구 테크노파크로 164(송도동),126.630272,37.395294,,"인천광역시 연수구 아트센터대로 203, 비동 1621호",영업소,투투렌트카,3210000,서울특별시 서초구
2019-05-31,02-599-0333,,,,,,,,19:00,09:00,,,,,,,0,0,0,0,5,5,,경기도 성남시 분당구 정자동 12-1,경기도 성남시 분당구 정자일로 227(정자동),127.108316,37.350746,,"경기도 성남시 분당구 성남대로 165(금곡동, 천사의도시오피스텔 1차 766호)",영업소,투투렌트카,3210000,서울특별시 서초구
2019-05-31,02-599-0333,,,,,,,,19:00,09:00,,,,,,,0,0,0,0,40,40,,"서울특별시 서초구 신반포로3길 8, B2","서울특별시 서초구 신반포로3길 8, B2",126.986873,37.502074,,"서울특별시 서초구 신반포로3길 8  610호, 611호(반포동)",주사업장,투투렌트카,3210000,서울특별시 서초구
2019-05-31,02-599-0333,,,,,,,,19:00,09:00,,,,,,,0,0,0,0,23,23,,서울특별시 서초구 서초동 1321-11,서울특별시 서초구 서초대로 398(서초동),126.986873,37.502074,,"서울특별시 서초구 신반포로3길 8  610호, 611호(반포동)",주사업장,투투렌트카,3210000,서울특별시 서초구
2019-05-31,02-599-0333,,,,,,,,19:00,09:00,,,,,,,0,0,0,0,30,30,,서울특별시 강동구 성내동 199-10,서울특별시 강동구 천호대로 1102(성내동),126.986873,37.502074,,"서울특별시 서초구 신반포로3길 8  610호, 611호(반포동)",주사업장,투투렌트카,3210000,서울특별시 서초구
2019-05-31,02-599-0333,,,,,,,,19:00,09:00,,,,,,,0,0,0,0,60,60,,서울특별시 서초구 양재동 225-5,서울특별시 서초구 양재대로12길 25(양재동),126.986873,37.502074,,"서울특별시 서초구 신반포로3길 8  610호, 611호(반포동)",주사업장,투투렌트카,3210000,서울특별시 서초구
2019-05-31,02-599-0333,,,,,,,,19:00,09:00,,,,,,,0,0,0,0,30,30,,,서울특별시 동대문구 청계천로 525 청계주차장,126.986873,37.502074,,"서울특별시 서초구 신반포로3길 8  610호, 611호(반포동)",주사업장,투투렌트카,3210000,서울특별시 서초구
2019-05-31,02-599-0333,,,,,,,,19:00,09:00,,,,,,,0,0,0,0,30,30,,서울특별시 영등포구 영등포동4가 123,서울특별시 영등포구 영등포로34길 9(영등포동4가),126.986873,37.502074,,"서울특별시 서초구 신반포로3길 8  610호, 611호(반포동)",주사업장,투투렌트카,3210000,서울특별시 서초구
2019-05-31,02-599-0333,,,,,,,,19:00,09:00,,,,,,,0,0,0,2,244,246,,,서울특별시 강서구 마곡서로 101,126.986873,37.502074,,"서울특별시 서초구 신반포로3길 8  610호, 611호(반포동)",주사업장,투투렌트카,3210000,서울특별시 서초구
2019-05-31,02-599-0333,,,,,,,,19:00,09:00,,,,,,,0,0,0,0,50,50,,,서울특별시 금천구 시흥대로 435 (독산동),126.986873,37.502074,,"서울특별시 서초구 신반포로3길 8  610호, 611호(반포동)",주사업장,투투렌트카,3210000,서울특별시 서초구
2019-05-31,02-571-5500,,,,,,,,18:00,09:00,,,,,,,0,0,0,0,57,57,,,서울특별시 성북구 보문로 168(삼선동 5가),127.012742,37.513006,,서울특별시 서초구 잠원로4길 54 116호(잠원동),주사업장,케이티앤에스,3210000,서울특별시 서초구
2019-05-31,02-592-0079,,,,,,,,18:00,08:30,,,,,,,0,0,0,0,11,11,,서울특별시 서초구 우면동 700,서울특별시 서초구 우면동 700,127.005560,37.511685,,서울특별시 서초구 신반포로23길 78-9(잠원동),주사업장,빵빵카,3210000,서울특별시 서초구
2019-05-31,02-592-0079,,,,,,,,18:00,08:30,,,,,,,0,0,0,3,70,73,,,서울특별시 서초구 성촌4길 19,127.0222599,37.511685,,서울특별시 서초구 신반포로23길 78-9(잠원동),주사업장,빵빵카,3210000,서울특별시 서초구
2019-05-31,02-575-6486,,,,,,,,18:00,09:00,,,,,,,0,0,0,0,28,28,,,경기도 성남시 수정구 시민로 173(신흥동),127.142342,37.443393,,경기도 성남시 수정구 시민로 173(신흥동),영업소,강남렌트카,3210000,서울특별시 서초구
2019-05-31,02-575-6486,,,,,,,,18:00,09:00,,,,,,,0,0,0,0,34,34,,,서울특별시 영등포구 국회대로22길20,126.8901326,37.483516,,"서울특별시 서초구 바우뫼로 41길 72-2, 301호",주사업장,강남렌트카,3210000,서울특별시 서초구
2019-05-31,02-525-3860,,,,,,,,18:00,09:00,,,,,,,0,0,0,27,154,181,,,경기도 평택시 청북읍 고잔6길 119-13,126.893698,37.0406844,,경기도 평택시 청북읍 고잔6길 119-13,영업소,클로버렌트카,3210000,서울특별시 서초구
2019-05-31,02-525-3860,,,,,,,,18:00,09:00,,,,,,,0,0,0,0,0,0,,서울특별시 서초구 방배동 916-4,서울특별시 서초구 방배동 916-4,126.994564,37.4601863,,"서울특별시 서초구 효령로 92, 2층 21호(방배동, 대우프라자)",주사업장,클로버렌트카,3210000,서울특별시 서초구
2019-05-31,02-525-3860,,,,,,,,18:00,09:00,,,,,,,0,0,0,0,18,18,,서울특별시 서초구 양재동 225-5,서울특별시 서초구 양재대로12길 25(양재동),126.994564,37.4601863,,"서울특별시 서초구 효령로 92, 2층 21호(방배동, 대우프라자)",주사업장,클로버렌트카,3210000,서울특별시 서초구
2019-05-31,02-591-9977,,,,,,,,18:30,08:30,,,,,,,0,0,0,0,5,5,,,충청북도 청주시 흥덕구 진재로110번길 37(복대동),127.4317893,36.639996,충청북도 청주시 흥덕구 복대동 293-1,충청북도 청주시 흥덕구 진재로110번길 37(복대동),영업소,삼보렌트카,3210000,서울특별시 서초구
2019-05-31,02-591-9977,,,,,,,,18:30,08:30,,,,,,,0,0,0,26,754,780,,"서울특별시 중구 장충동2가 201-6,7",서울특별시 중구 장충단로 72(장충동2가),126.996099,37.488745,,서울특별시 서초구 서초대로 127 1층(방배동),주사업장,삼보렌트카,3210000,서울특별시 서초구
2019-08-29,061-745-2349,,,,,,,,23:59,00:00,,,,,,,,0,0,1,53,54,489,,"전라남도 순천시 장천동 14-18, 14-25, 14-1",127.4902242,34.9503716,,전라남도 순천시 장천4길 36,주사업장,일구구사투어렌트카,4820000,전라남도 순천시
2019-08-29,000-0000-0000,,,,,,,,23:59,00:00,,,,,,,,0,0,0,0,0,460,,전라남도 순천시 남문천변길 62(장천동),127.4888248,34.952518,,전라남도 순천시 남문천변길 62(장천동),영업소,㈜천하    렌트카,4820000,전라남도 순천시
2019-05-31,02-590-7045,,,,,,,,18:00,09:00,,,,,,,0,0,0,0,4,4,,대전광역시 유성구 원신흥동 556-4,대전광역시 유성구 원신흥동 556-4,127.307394,36.339422,,대전광역시 유성구 학하중앙로128번길 23-32(학하동),영업소,마스타자동차관리,3210000,서울특별시 서초구
2019-05-31,02-590-7045,,,,,,,,18:00,09:00,,,,,,,0,0,0,0,50,50,,서울특별시 서초구 양재동 225번지 외,서울특별시 서초구 양재대로12길 25(양재동),127.010999,37.500427,,서울특별시 서초구 서초중앙로31길 6-5(반포동),주사업장,마스타자동차관리,3210000,서울특별시 서초구
2019-05-31,02-590-7045,,,,,,,,18:00,09:00,,,,,,,0,0,0,0,57,57,,,서울특별시 양천구 가로공원로 72,127.010999,37.500427,,서울특별시 서초구 서초중앙로31길 6-5(반포동),주사업장,마스타자동차관리,3210000,서울특별시 서초구
2019-05-31,02-590-7045,,,,,,,,18:00,09:00,,,,,,,0,0,0,10,0,10,,서울특별시 서초구 양재동 225번지 외,서울특별시 서초구 양재대로12길 25(양재동),127.011179,37.500427,,서울특별시 서초구 서초중앙로31길 6-5(반포동),주사업장,마스타자동차관리,3210000,서울특별시 서초구
2019-05-31,02-590-7045,,,,,,,,18:00,09:00,,,,,,,0,0,0,50,50,50,,서울특별시 성북구 삼선3가 50 경동고등학교 주차장,서울특별시 성북구 삼선3가 50 경동고등학교 주차장,127.010999,37.500427,,서울특별시 서초구 서초중앙로31길 6-5(반포동),주사업장,마스타자동차관리,3210000,서울특별시 서초구
2019-05-31,02-590-7045,,,,,,,,18:00,09:00,,,,,,,0,43,0,0,100,100,,서울특별시 성동구 도선동 286 교보생명 성동주차장,서울특별시 성동구 왕십리로 342(도선동),127.011179,37.500253,,서울특별시 서초구 서초중앙로31길 6-5(반포동),주사업장,마스타자동차관리,3210000,서울특별시 서초구
2019-05-31,02-474-7007,,,,,,,,21:00,08:00,,,,,,,0,0,0,0,21,21,,,서울특별시 서초구 서초대로 17,126.983999,37.486308,,서울특별시 서초구 방배천로112(방배동),주사업장,탑오렌지렌터카,3210000,서울특별시 서초구
2019-05-31,02-474-7007,,,,,,,,21:00,08:00,,,,,,,0,0,0,3,27,30,,서울특별시 서초구 서초동 1697-15,서울특별시 서초구 서초동 1697-15,126.983999,37.486308,,서울특별시 서초구 방배천로112(방배동),주사업장,탑오렌지렌터카,3210000,서울특별시 서초구
2019-05-31,3141-2345,,,,,,,,19:00,09:00,,,,,,,0,0,0,0,0,0,,,경기도 김포시 양촌읍 모산로 8,126.656031,37.651092,,경기도 김포시 양촌읍 모산로 8,영업소,브이아이피렌터카클라스,3210000,서울특별시 서초구
2019-05-31,3141-2345,,,,,,,,19:00,09:00,,,,,,,0,0,0,3,66,69,,충청북도 청주시 상당구 월오동 223-2,충청북도 청주시 상당구 월오동 223-2,127.480899,36.639851,,충청북도 청주시 서원구 대원로 42  (사직동),영업소,브이아이피렌터카클라스,3210000,서울특별시 서초구
2019-05-31,3141-2345,,,,,,,,19:00,09:00,,,,,,,0,0,0,0,17,17,,서울특별시 양천구 신월동 21-1 신월주차장,서울특별시 양천구 월정로 257(신월동),127.012742,37.513006,,서울특별시 서초구 잠원로4길 54 204호(잠원동),주사업장,브이아이피렌터카클라스,3210000,서울특별시 서초구
2019-05-31,1544-8586,,,,,,,,20:00,08:00,,,,,,,0,0,0,0,9,9,,,서울특별시 광진구 자양로 120,127.043126,37.476804,,서울특별시 서초구 마방로6길 7-35(양재동),주사업장,렌터카다모아,3210000,서울특별시 서초구
2019-05-31,1544-8586,,,,,,,,20:00,08:00,,,,,,,0,0,0,6,49,55,,"서울특별시 양천구 목동 532-18,19 달마을공영주차장","서울특별시 양천구 목동 532-18,19 달마을공영주차장",127.043126,37.476804,,서울특별시 서초구 마방로6길 7-35(양재동),주사업장,렌터카다모아,3210000,서울특별시 서초구
2019-05-31,1544-8586,,,,,,,,20:00,08:00,,,,,,,0,0,0,0,77,77,,서울특별시 양천구 신월7동 915-4,서울특별시 양천구 지양로14길 15(신월동),127.043126,37.566138,,서울특별시 서초구 마방로6길 7-35(양재동),주사업장,렌터카다모아,3210000,서울특별시 서초구
2019-05-31,3461-1437,,,,,,,,20:00,09:00,,,,,,,0,0,0,0,2,2,,경기도 시흥시 정왕동 2330 외 2필지,경기도 시흥시 정왕동 2330 외 2필지,126.724067,37.337134,,경기도 시흥시 공단1대로 204(공구상가 제26동 318호),영업소,도도렌트카,3210000,서울특별시 서초구
2019-05-31,3461-1437,,,,,,,,20:00,09:00,,,,,,,0,0,0,0,0,0,,,부산광역시 중구 중앙대로 154 1층,128.971061,35.141905,,부산광역시 사상구 낙동대로 910 B-148,영업소,도도렌트카,3210000,서울특별시 서초구
2019-05-31,3461-1437,,,,,,,,20:00,09:00,,,,,,,0,0,0,2,1,3,,,경기도 용인시 수지구 풍덕천로 129번길 8(풍덕천동 711),127.074573,37.240744,,경기도 용인시 기흥구 서천서로 12번길 8-18(서천동 729-5),영업소,도도렌트카,3210000,서울특별시 서초구
2019-05-31,3461-1437,,,,,,,,20:00,09:00,,,,,,,0,0,0,0,4,4,,"전라북도 정읍시 흑암동 62, 68-3, 69-1",전라북도 정읍시 동학로 133(흑암동),126.844921,35.568819,전라북도 정읍시 연지동 252-44,전라북도 정읍시 문학길 6-3(연지동),영업소,도도렌트카,3210000,서울특별시 서초구
2019-05-31,3461-1437,,,,,,,,20:00,09:00,,,,,,,0,0,0,0,15,15,,,전라북도 정읍시 문학길 6-3(연지동),126.844921,35.568819,전라북도 정읍시 연지동 252-44,전라북도 정읍시 문학길 6-3(연지동),영업소,도도렌트카,3210000,서울특별시 서초구
2019-05-31,3461-1437,,,,,,,,20:00,09:00,,,,,,,0,0,0,0,0,0,,,경기도 부천시 상동로 84(상동),126.753313,37.489853,,"경기도 부천시 부일로 205번길 26, 105호(상동)",영업소,도도렌트카,3210000,서울특별시 서초구
2019-05-31,3461-1437,,,,,,,,20:00,09:00,,,,,,,0,0,0,0,0,0,,,서울특별시 강서구 마곡중앙6로 16(마곡동),127.096191,37.501699,,"서울특별시 송파구 삼학사로 11길 6, 1층(삼전동)",영업소,도도렌트카,3210000,서울특별시 서초구
2019-05-31,3461-1437,,,,,,,,20:00,09:00,,,,,,,0,0,0,0,0,0,,,서울특별시 강서구 마곡중앙6로 16(마곡동),127.095101,37.599283,,"서울특별시 중랑구 송림길 1, 74-1호(상봉동)",영업소,도도렌트카,3210000,서울특별시 서초구
2019-05-31,3461-1437,,,,,,,,20:00,09:00,,,,,,,0,0,0,0,0,0,,,서울특별시 강서구 마곡중앙6로 16(마곡동),127.022055,37.488561,,서울특별시 서초구 서리풀 4길 25(서초동),영업소,도도렌트카,3210000,서울특별시 서초구
2019-05-31,3461-1437,,,,,,,,20:00,09:00,,,,,,,0,0,0,21,280,301,,서울특별시 서초구 양재동 225-5,서울특별시 서초구 양재대로12길 25(양재동),127.065303,37.455215,,서울특별시 서초구 홍씨마을길 3(내곡동),주사업장,도도렌트카,3210000,서울특별시 서초구
2019-05-31,3461-1437,,,,,,,,20:00,09:00,,,,,,,0,0,0,6,200,206,,,서울특별시 강서구 마곡서로 157,127.065303,37.455215,,서울특별시 서초구 홍씨마을길 3(내곡동),주사업장,도도렌트카,3210000,서울특별시 서초구
2019-05-31,02-599-0333,,,,,,,,19:00,09:00,,,,,,,0,0,0,0,5,5,,,울산광역시 남구 팔등로 41번길 17(은월주차장),129.340037,35.539135,,"울산광역시 남구 화합로 162, 1720호(삼산동,나인파크오피스텔)",영업소,투투렌트카,3210000,서울특별시 서초구
2019-05-31,02-599-0333,,,,,,,,19:00,09:00,,,,,,,0,0,0,0,5,5,,,경상북도 포항시 북구 불종로 51(상원동),129.340827,36.007876,,"경상북도 포항시 남구 효성로63번길 19, 101호",영업소,투투렌트카,3210000,서울특별시 서초구
2019-05-31,2059-8572,,,,,,,,19:00,09:00,,,,,,,0,0,0,0,0,0,,경기도 양평군 양평읍 오빈역길3,경기도 양평군 양평읍 오빈역길 3,127.474106,37.504143,,경기도 양평군 양평읍 오빈역길3,영업소,아이에스렌터카,3210000,서울특별시 서초구
2019-05-31,2059-8572,,,,,,,,19:00,09:00,,,,,,,0,0,0,0,10,10,,서울특별시 은평구 수색동 78-2외7필지,서울특별시 은평구 수색동 78-2외7필지,127.072711,37.537907,,서울특별시 광진구 아차산로 262 B147호,영업소,아이에스렌터카,3210000,서울특별시 서초구
2019-05-31,2059-8572,,,,,,,,19:00,09:00,,,,,,,0,0,0,0,11,11,,경기도 의정부시 민락동 815번지,경기도 의정부시 민락동 815번지,127.115048,37.652235,,"경기도 남양주시 별내5로 5번길 54, 101호(별내동,엔포레프라자)",영업소,아이에스렌터카,3210000,서울특별시 서초구
2019-05-31,2059-8572,,,,,,,,19:00,09:00,,,,,,,0,0,0,0,21,21,,,경기도 성남시 분당구 성남대로172번길 24(금곡동),127.111498,37.350887,,"경기도 성남시 분당구 성남대로172번길 24, 823호(금곡동)",영업소,아이에스렌터카,3210000,서울특별시 서초구
2019-05-31,2059-8572,,,,,,,,19:00,09:00,,,,,,,0,0,0,2,41,43,,,서울특별시 도봉구 마들로 657,127.035344,37.461806,,"서울특별시 서초구 양재대로11길 36 101호 (양재동,서울오토갤러리 은관)",주사업장,아이에스렌터카,3210000,서울특별시 서초구
2019-05-31,2059-8572,,,,,,,,19:00,09:00,,,,,,,0,0,0,0,30,30,,서울특별시 동작구 사당동 318-12,서울특별시 동작구 사당동 318-12,127.035344,37.461806,,"서울특별시 서초구 양재대로11길 36 101호 (양재동,서울오토갤러리 은관)",주사업장,아이에스렌터카,3210000,서울특별시 서초구
2019-05-31,2059-8572,,,,,,,,19:00,09:00,,,,,,,0,0,0,0,15,15,,,서울특별시 서초구 양재대로12길 25(양재동),127.035344,37.461806,,"서울특별시 서초구 양재대로11길 36 101호 (양재동,서울오토갤러리 은관)",주사업장,아이에스렌터카,3210000,서울특별시 서초구
2019-05-31,2059-8572,,,,,,,,19:00,09:00,,,,,,,0,0,0,4,96,100,,,서울특별시 성동구 마조로 18길 20,127.035344,37.461806,,"서울특별시 서초구 양재대로11길 36 101호 (양재동,서울오토갤러리 은관)",주사업장,아이에스렌터카,3210000,서울특별시 서초구
2019-05-31,02-896-9494,,,,,,,,20:00,08:00,,,,,,,0,0,0,2,10,12,,"서울특별시 강남구 역삼1동 624-25,26","서울특별시 강남구 역삼1동 624-25,26",127.040089,37.490716,,"서울특별시 강남구 논현로 213, 상가동 B116호",영업소,삼성렌터카,3210000,서울특별시 서초구
2019-05-31,02-896-9494,,,,,,,,20:00,08:00,,,,,,,0,0,0,6,34,40,,"서울특별시 서초구 서초동 1561-7,9,10,13 한성주차장","서울특별시 서초구 서초동 1561-7,9,10,13 한성주차장",127.017339,37.510622,,"서울특별시 서초구 신반포로 43길 11-11, 106호",영업소,삼성렌터카,3210000,서울특별시 서초구
2019-05-31,02-896-9494,,,,,,,,20:00,08:00,,,,,,,0,0,0,2,5,7,,서울특별시 강남구 개포동 1176-3,서울특별시 강남구 개포동 1176-3,127.017028,37.510456,,서울특별시 서초구 신반포로43길 11-26(잠원동),주사업장,삼성렌터카,3210000,서울특별시 서초구
2019-05-31,02-896-9494,,,,,,,,20:00,08:00,,,,,,,0,0,0,6,28,34,,"서울특별시 강남구 역삼1동 624-25,26","서울특별시 강남구 역삼1동 624-25,26",127.017028,37.510456,,서울특별시 서초구 신반포로43길 11-26(잠원동),주사업장,삼성렌터카,3210000,서울특별시 서초구
2019-05-31,02-896-9494,,,,,,,,20:00,08:00,,,,,,,0,0,0,9,36,45,,"서울특별시 서초구 서초동 1561-7,9,10,13 한성주차장","서울특별시 서초구 서초동 1561-7,9,10,13 한성주차장",127.017028,37.510456,,서울특별시 서초구 신반포로43길 11-26(잠원동),주사업장,삼성렌터카,3210000,서울특별시 서초구
2019-05-31,02-896-9494,,,,,,,,20:00,08:00,,,,,,,0,0,0,0,51,51,,서울특별시 서초구 잠원동 46-8 삼성주차장,서울특별시 서초구 잠원동 46-8 삼성주차장,127.017028,37.510456,,서울특별시 서초구 신반포로43길 11-26(잠원동),주사업장,삼성렌터카,3210000,서울특별시 서초구
2019-05-31,02-590-7045,,,,,,,,18:00,09:00,,,,,,,0,0,0,0,0,0,,,경상남도 창원시 성산구 마디미로 73번길 25,128.487711,35.118251,,경상남도 창원시 마산합포구 진동면 덕곡덕기길 37,영업소,마스타자동차관리,3210000,서울특별시 서초구
2019-05-31,02-590-7045,,,,,,,,18:00,09:00,,,,,,,0,0,0,0,5,5,,대구광역시 동구 동호동 371,대구광역시 동구 동호로3길 6,128.555065,35.887137,,대구광역시 서구 염색공단로5길 17,영업소,마스타자동차관리,3210000,서울특별시 서초구
2019-05-31,02-590-7045,,,,,,,,18:00,09:00,,,,,,,0,0,0,0,9,9,,광주광역시 광산구 우산동 1606-9,광주광역시 광산구 무진대로 212번길 13-36(우산동),126.940538,35.120821,,광주광역시 동구 소태길 76,영업소,마스타자동차관리,3210000,서울특별시 서초구
2019-05-31,02-590-7045,,,,,,,,18:00,09:00,,,,,,,0,0,0,0,3,3,,,광주광역시 동구 소태길 76,126.940538,35.120821,,광주광역시 동구 소태길 76,영업소,마스타자동차관리,3210000,서울특별시 서초구
2019-05-31,02-590-7045,,,,,,,,18:00,09:00,,,,,,,0,0,0,0,0,0,,,충청북도 청주시 흥덕구 공단로 137,127.435868,36.642512,,충청북도 청주시 흥덕구 공단로 137,영업소,마스타자동차관리,3210000,서울특별시 서초구
2019-05-31,02-590-7045,,,,,,,,18:00,09:00,,,,,,,0,0,0,0,15,15,,강원도 강릉시 대전동 206-3,강원도 강릉시 동해대로3456번길 22-12,128.8613187,37.796942,강원도 강릉시 대전동 206-3,강원도 강릉시 동해대로3456번길 22-12,영업소,마스타자동차관리,3210000,서울특별시 서초구
2019-05-31,02-590-7045,,,,,,,,18:00,09:00,,,,,,,0,0,0,0,0,0,,,"인천광역시 계양구 아나지로 332, 지하주차장",126.728266,37.524887,,"인천광역시 계양구 아나지로 332, 201동 121호",영업소,마스타자동차관리,3210000,서울특별시 서초구
2019-05-31,02-590-7045,,,,,,,,18:00,09:00,,,,,,,0,0,0,0,4,4,,"경기도 용인시 수지구 성복동 89번지, 성복동 70-1번지","경기도 용인시 수지구 성복동 89번지, 성복동 70-1번지",127.100051,37.292338,,경기도 용인시 기흥구 신정로 270-22,영업소,마스타자동차관리,3210000,서울특별시 서초구
2019-05-31,02-590-7045,,,,,,,,18:00,09:00,,,,,,,0,0,0,0,0,0,,,경기도 양주시 백석읍 부흥로 1204번길 35,127.009775,37.791112,,경기도 양주시 백석읍 부흥로 1204번길 35,영업소,마스타자동차관리,3210000,서울특별시 서초구
2019-05-31,02-590-7045,,,,,,,,18:00,09:00,,,,,,,0,0,0,0,6,6,,부산광역시 부산진구 부전동 521-1,부산광역시 부산진구 서면로 39(부전동),128.982641,35.085492,부산광역시 사하구 신평동 569-54,부산광역시 사하구 을숙도대로 709(신평동),영업소,마스타자동차관리,3210000,서울특별시 서초구
2019-05-31,02-590-7045,,,,,,,,18:00,09:00,,,,,,,0,0,0,2,8,10,,,전라북도 전주시 완산구 전라감영3길 18(중앙동2가),127.118318,35.815703,,전라북도 전주시 완산구 중화산로62(중화산동2가 616-13),영업소,마스타자동차관리,3210000,서울특별시 서초구
2019-05-31,02-590-7045,,,,,,,,18:00,09:00,,,,,,,0,0,0,1,6,7,,,충청남도 천안시 서북구 두정로 203(두정동),127.164982,36.828354,,"충청남도 천안시 동남구 망향로 13(신부동, 104호)",영업소,마스타자동차관리,3210000,서울특별시 서초구
2019-05-31,1544-7198,,,,,,,,20:00,09:00,,,,,,,0,0,0,0,9,9,,,서울특별시 은평구 92다길 16-23,126.834379,37.665667,,경기도 고양시 덕양구 마상로57번길 110(주교동),영업소,플랫,3210000,서울특별시 서초구
2019-05-31,1544-7198,,,,,,,,20:00,09:00,,,,,,,0,0,0,0,10,10,,,경기도 고양시 일산동구 위시티2로 11번길 31,126.834379,37.665667,,경기도 고양시 덕양구 마상로57번길 110(주교동),영업소,플랫,3210000,서울특별시 서초구
2019-05-31,1544-7198,,,,,,,,20:00,09:00,,,,,,,0,0,0,0,5,5,,,경기도 고양시 일산서구 주화로 210,126.834379,37.665667,,경기도 고양시 덕양구 마상로57번길 110(주교동),영업소,플랫,3210000,서울특별시 서초구
2019-05-31,1544-7198,,,,,,,,20:00,09:00,,,,,,,0,0,0,0,5,5,,,경기도 고양시 일산서구 일중로15번길 55(일산동),126.803726,37.661577,,"경기도 고양시 일산동구 백마로 502번길 34, 101호",영업소,플랫,3210000,서울특별시 서초구
2019-05-31,1544-7198,,,,,,,,20:00,09:00,,,,,,,0,0,0,0,6,6,,,서울특별시 은평구 통일로 755,127.025064,37.496819,,"서울특별시 서초구 서초대로 398, 4층 401호",주사업장,플랫,3210000,서울특별시 서초구
2019-05-31,1544-7198,,,,,,,,20:00,09:00,,,,,,,0,0,0,2,36,38,,,서울특별시 영등포구 국제금융로2길 37,127.025064,37.496819,,"서울특별시 서초구 서초대로 398, 4층 401호",주사업장,플랫,3210000,서울특별시 서초구
2019-05-31,1544-7198,,,,,,,,20:00,09:00,,,,,,,0,0,0,1,98,99,,서울특별시 서초구 양재동 225,서울특별시 서초구 양재대로12길 25(양재동),127.025064,37.496819,,"서울특별시 서초구 서초대로 398, 4층 401호",주사업장,플랫,3210000,서울특별시 서초구
2019-05-31,070-5121-0013,,,,,,,,18:00,09:00,,,,,,,0,0,0,0,4,4,,,경기도 용인시 수지구 용구대로 2753번길 6,127.108031,37.332254,,경기도 용인시 수지구 용구대로 2753번길 6,영업소,굿윌파트너즈,3210000,서울특별시 서초구
2019-05-31,070-5121-0013,,,,,,,,18:00,09:00,,,,,,,0,0,0,4,130,134,,,서울특별시 성동구 마조로 18길 20,127.029103,37.491492,,"서울특별시 서초구 강남대로 51길 10, B1층 101-15호",주사업장,굿윌파트너즈,3210000,서울특별시 서초구
2019-05-31,070-5121-0013,,,,,,,,18:00,09:00,,,,,,,0,0,0,0,46,46,,,서울특별시 양천구 신정동 884-8,127.029103,37.491492,,"서울특별시 서초구 강남대로 51길 10, B1층 101-15호",주사업장,굿윌파트너즈,3210000,서울특별시 서초구
2019-05-31,070-4616-6552,,,,,,,,18:00,09:00,,,,,,,0,0,0,0,0,0,,,서울특별시 강동구 동남로 75길 5,127.032457,37.485868,,"서울특별시 서초구 강남대로39길 15-3, 보전빌딩 401호",주사업장,지모터스,3210000,서울특별시 서초구
2019-05-31,070-4616-6552,,,,,,,,18:00,09:00,,,,,,,0,0,0,3,150,153,,,서울특별시 성북구 보문로 168 성북구청 공영주차장,127.032457,37.485868,,"서울특별시 서초구 강남대로39길 15-3, 보전빌딩 401호",주사업장,지모터스,3210000,서울특별시 서초구
2019-05-31,2043-4888,,,,,,,,20:00,10:00,,,,,,,0,0,0,0,3,3,,,경기도 양평군 양평읍 경강로 1736,127.473723,37.501921,,경기도 양평군 양평읍 경강로 1736,영업소,거성렌트카,3210000,서울특별시 서초구
2019-05-31,2043-4888,,,,,,,,20:00,10:00,,,,,,,0,0,0,0,27,27,,,경기도 남양주시 마치로 49,127.148389,37.663149,,경기도 남양주시 퇴계원면 퇴계원로 199,영업소,거성렌트카,3210000,서울특별시 서초구
2019-05-31,2043-4888,,,,,,,,20:00,10:00,,,,,,,0,0,0,1,22,23,,"서울특별시 동작구 흑석동 233-25,26,27,29,74","서울특별시 동작구 흑석동 233-25,26,27,29,74",127.057162,37.446413,,"서울특별시 서초구 청계산로 217, 2층 254호(신원동, 자연누리오피스텔)",주사업장,거성렌트카,3210000,서울특별시 서초구
2019-05-31,3412-0829,,,,,,,,18:30,09:30,,,,,,,0,0,0,1,80,81,,,서울특별시 강서구 마곡서로 101 동익드미라벨 주차장,127.035344,37.461806,,"서울특별시 서초구 양재대로11길 36 금관 304-1호 (양재동, 오토갤러리)",주사업장,센트로렌터카,3210000,서울특별시 서초구
2019-05-31,1588-8981,,,,,,,,20:00,09:00,,,,,,,0,0,0,0,8,8,,,경기도 성남시 분당구 구미로9번길 25(구미동),127.111498,37.350887,,경기도 성남시 분당구 성남대로172번길 24(금곡동),영업소,하이원렌터카,3210000,서울특별시 서초구
2019-05-31,1588-8981,,,,,,,,20:00,09:00,,,,,,,0,0,0,0,3,3,,,서울특별시 은평구 수색동 78-2외7필지,127.027012,37.638612,,서울특별시 강북구 도봉로 352 109호,영업소,하이원렌터카,3210000,서울특별시 서초구
2019-05-31,1588-8981,,,,,,,,20:00,09:00,,,,,,,0,0,0,0,17,17,,,"서울특별시 강서구 양천로 7, 외 2필지(방화동)",127.027012,37.638612,,서울특별시 강북구 도봉로 352 109호,영업소,하이원렌터카,3210000,서울특별시 서초구
2019-05-31,1588-8981,,,,,,,,20:00,09:00,,,,,,,0,0,0,0,10,10,,,서울특별시 양천구 월정로 257 신월주차장,127.078038,37.558415,서울특별시 광진구 중곡동 639-17 1층,서울특별시 광진구 능동로37길 31,영업소,하이원렌터카,3210000,서울특별시 서초구
2019-05-31,1588-8981,,,,,,,,20:00,09:00,,,,,,,0,0,0,1,8,9,,인천광역시 연수구 송도동 24-5 중앙공원주차장,인천광역시 연수구 테크노파크로 164(송도동),126.721865,37.517993,인천광역시 부평구 갈산동 151-18 내 제1층제1호,인천광역시 부평구 부평대로 298(갈산동),영업소,하이원렌터카,3210000,서울특별시 서초구
2019-05-31,1588-8981,,,,,,,,20:00,09:00,,,,,,,0,0,0,0,32,32,,서울특별시 은평구 통일로 92다길 16-23,서울특별시 송파구 백제고분로32길 25-17(삼전동),127.017773,37.484674,,"서울특별시 서초구 효령로 304, 5층11호 (서초동, 국제전자센터)",주사업장,하이원렌터카,3210000,서울특별시 서초구
2019-05-31,6673-5500,,,,,,,,20:00,08:00,,,,,,,0,0,0,41,16,57,,,서울특별시 서초구 청계산로 217,127.0571361,37.446269,,"서울특별시 서초구 청계산로 217, 1층",주사업장,케이밴코리아,3210000,서울특별시 서초구
2019-05-31,2059-5776,,,,,,,,17:30,08:30,,,,,,,0,0,0,1,130,131,,,서울특별시 성동구 마조로 18길 20,127.035344,37.461806,,"서울특별시 서초구 양재대로11길 36 은관105호 (양재동, 오토갤러리)",주사업장,디에이에프에스,3210000,서울특별시 서초구
2019-05-31,2059-5776,,,,,,,,17:30,08:30,,,,,,,0,0,0,0,118,118,,,서울특별시 서초구 양재대로 12길25(양재동),127.035344,37.461806,,"서울특별시 서초구 양재대로11길 36 은관105호 (양재동, 오토갤러리)",주사업장,디에이에프에스,3210000,서울특별시 서초구
2019-05-31,02-532-7791,,,,,,,,19:00,09:00,,,,,,,0,0,0,0,45,45,,,서울특별시 성동구 마조로18길 20(마장동 외 3필지),126.983054,37.485966,,"서울특별시 서초구 서초대로 3-4, 비-121호 (방배동, 디오슈페리움1차)",주사업장,지지렌트카,3210000,서울특별시 서초구
2019-05-31,02-532-7791,,,,,,,,19:00,09:00,,,,,,,0,0,0,1,48,49,,서울특별시 강서구 화곡동 61-184 화일초 공영 주차장,서울특별시 강서구 까치산로10길 70(화곡동),126.983054,37.485966,,"서울특별시 서초구 서초대로 3-4, 비-121호 (방배동, 디오슈페리움1차)",주사업장,지지렌트카,3210000,서울특별시 서초구
2019-05-29,02-831-8850,"복성채, 최순길",www.gmautoland.co.kr,"토, 일, 공휴일",,,,,18:00,08:00,,,,,,,,0,0,6,315,321,,서울특별시 강서구 마곡동 768-2,서울특별시 강서구 마곡서로 101,126.9251744749,37.4918481110,"서울특별시 관악구 봉천동 729-24 , 캐릭터그린빌 1309호",서울특별시 관악구 보라매로5가길 7,주사업장,굿모닝오토랜드,3200000,서울특별시 관악구
2019-05-29,02-887-4242,김용식,www.rexrentcar.com,연중무휴,22:00,08:00,22:00,08:00,22:00,08:00,,,,,,,,0,0,6,44,50,,서울특별시 관악구 낙성대동 281,서울특별시 관악구 낙성대로 42,126.9562403,37.4802045,서울특별시 관악구 봉천6동 1665-5,서울특별시 관악구 남부순환로 1855,주사업장,렉스렌터카,3200000,서울특별시 관악구
2019-05-31,070-4896-3742,,,,,,,,18:00,09:00,,,,,,,0,0,0,0,16,16,,,서울특별시 동대문구 장한로26다길 87,127.043848,37.477102,,"서울특별시 서초구 마방로 10길 15, B동 721호(양재동)",주사업장,굿딜렌터카,3210000,서울특별시 서초구
2019-05-31,070-4896-3742,,,,,,,,18:00,09:00,,,,,,,0,0,0,2,1,3,,,서울특별시 동대문구 청계천로 525 청계주차장,127.043848,37.477102,,"서울특별시 서초구 마방로 10길 15, B동 721호(양재동)",주사업장,굿딜렌터카,3210000,서울특별시 서초구
2019-05-31,070-4896-3742,,,,,,,,18:00,09:00,,,,,,,0,0,0,0,4,4,,,서울특별시 성동구 마장동 439-1,127.043848,37.477102,,"서울특별시 서초구 마방로 10길 15, B동 721호(양재동)",주사업장,굿딜렌터카,3210000,서울특별시 서초구
2019-05-31,070-4896-3742,,,,,,,,18:00,09:00,,,,,,,0,0,0,0,5,5,,,서울특별시 동대문구 정릉천동 83,127.043848,37.477102,,"서울특별시 서초구 마방로 10길 15, B동 721호(양재동)",주사업장,굿딜렌터카,3210000,서울특별시 서초구
2019-05-31,02-501-5766,,,,,,,,18:00,09:00,,,,,,,0,0,0,0,100,100,,,서울특별시 구로구 고척동 76-15,126.987965,37.467123,,서울특별시 서초구 과천대로 840(방배동),주사업장,빌림,3210000,서울특별시 서초구
2019-05-31,02-501-5766,,,,,,,,18:00,09:00,,,,,,,0,0,0,0,21,21,,,서울특별시 서초구 방배동 1002,126.987965,37.467123,,서울특별시 서초구 과천대로 840(방배동),주사업장,빌림,3210000,서울특별시 서초구
2019-05-31,02-501-5766,,,,,,,,18:00,09:00,,,,,,,0,0,0,0,100,100,,,서울특별시 성북구 장위동 79-1,126.987965,37.467123,,서울특별시 서초구 과천대로 840(방배동),주사업장,빌림,3210000,서울특별시 서초구
2019-05-31,02-501-5766,,,,,,,,18:00,09:00,,,,,,,0,0,0,0,70,70,,,서울특별시 성북구 보문로 29길 49,126.987965,37.467123,,서울특별시 서초구 과천대로 840(방배동),주사업장,빌림,3210000,서울특별시 서초구
2019-05-31,02-501-5766,,,,,,,,18:00,09:00,,,,,,,0,0,0,0,31,31,,,서울특별시 송파구 한가람로 437(풍납동),126.987965,37.467123,,서울특별시 서초구 과천대로 840(방배동),주사업장,빌림,3210000,서울특별시 서초구
2019-05-31,02-501-5766,,,,,,,,18:00,09:00,,,,,,,0,0,0,0,70,70,,,서울특별시 은평구 갈현로41가길 16(갈현동),126.987965,37.467123,,서울특별시 서초구 과천대로 840(방배동),주사업장,빌림,3210000,서울특별시 서초구
2019-05-31,02-501-5766,,,,,,,,18:00,09:00,,,,,,,0,0,0,0,18,18,,,서울특별시 은평구 구산동 340-1외3필지,126.987965,37.467123,,서울특별시 서초구 과천대로 840(방배동),주사업장,빌림,3210000,서울특별시 서초구
2019-05-31,02-501-5766,,,,,,,,18:00,09:00,,,,,,,0,0,0,0,10,10,,,서울특별시 양천구 신정로 167,126.987965,37.467123,,서울특별시 서초구 과천대로 840(방배동),주사업장,빌림,3210000,서울특별시 서초구
2019-05-31,02-501-5766,,,,,,,,18:00,09:00,,,,,,,0,0,0,0,100,100,,,서울특별시 서초구 양재동 225번지외3필지,126.987965,37.467123,,서울특별시 서초구 과천대로 840(방배동),주사업장,빌림,3210000,서울특별시 서초구
2019-05-31,02-560-4500,,,,,,,,18:00,09:00,,,,,,,0,0,0,0,166,166,,,부산광역시 기장군 철마면 반송로 1090,129.109792,35.144472,,부산광역시 수영구 수영로 434 남천동,영업소,스타렌터카코리아,3210000,서울특별시 서초구
2019-05-31,02-560-4500,,,,,,,,18:00,09:00,,,,,,,0,0,0,0,0,0,,부산광역시 남구 용당동 206-5,부산광역시 남구 신선로 245(용당동),129.109792,35.144472,,부산광역시 수영구 수영로 434 남천동,영업소,스타렌터카코리아,3210000,서울특별시 서초구
2019-05-31,02-560-4500,,,,,,,,18:00,09:00,,,,,,,0,0,0,0,163,163,,부산광역시 부산진구 부전동 521-1,부산광역시 부산진구 서면로 39,129.109792,35.144472,,부산광역시 수영구 수영로 434 남천동,영업소,스타렌터카코리아,3210000,서울특별시 서초구
2019-05-31,02-560-4500,,,,,,,,18:00,09:00,,,,,,,0,0,0,0,666,666,,서울특별시 강서구 내발산동 652-4 (블리스 제2주차장),서울특별시 강서구 강서로52길 34(내발산동),126.994269,37.486062,,"서울특별시 서초구 방배로 137, 9층(방배동)",주사업장,스타렌터카코리아,3210000,서울특별시 서초구
2019-05-31,02-560-4500,,,,,,,,18:00,09:00,,,,,,,0,0,0,0,0,0,,,서울특별시 송파구 백제고분로 32길 25-17(삼전동 175-8),126.994269,37.486062,,"서울특별시 서초구 방배로 137, 9층(방배동)",주사업장,스타렌터카코리아,3210000,서울특별시 서초구
2019-05-31,02-560-4500,,,,,,,,18:00,09:00,,,,,,,0,0,0,0,1424,1424,,,서울특별시 서초구 양재대로12길 25(양재동),126.994269,37.486062,,"서울특별시 서초구 방배로 137, 9층(방배동)",주사업장,스타렌터카코리아,3210000,서울특별시 서초구
2019-05-31,02-560-4500,,,,,,,,18:00,09:00,,,,,,,0,0,0,0,500,500,,,"서울특별시 강서구 방화대로 241(공항동, 공항중학교)",126.994269,37.486062,,"서울특별시 서초구 방배로 137, 9층(방배동)",주사업장,스타렌터카코리아,3210000,서울특별시 서초구
2019-05-31,1544-7198,,,,,,,,20:00,09:00,,,,,,,0,0,0,0,5,5,,,"서울특별시 영등포구 양평동2가 40-3, 40-9",127.072779,37.661526,,"서울특별시 노원구 한글비석로 396, 109동 지하34호",영업소,플랫,3210000,서울특별시 서초구
2019-05-31,1544-7198,,,,,,,,20:00,09:00,,,,,,,0,0,0,1,4,5,,,서울특별시 은평구 국제금융로2길 37,126.9244401,37.613315,,"서울특별시 은평구 역말로  166, 1층 2호(대조동)",영업소,플랫,3210000,서울특별시 서초구
2019-05-31,1544-7198,,,,,,,,20:00,09:00,,,,,,,0,0,0,0,5,5,,,인천광역시 남동구 구월동 1142-6,126.703393,37.522042,,"인천광역시 부평구 마장로 489, 1712호",영업소,플랫,3210000,서울특별시 서초구
2019-05-31,1544-7198,,,,,,,,20:00,09:00,,,,,,,0,0,0,0,0,0,,,서울특별시 강남구 강남대로 132길 55,127.025426,37.513659,,"서울특별시 강남구 강남대로 132길 55, 601호",영업소,플랫,3210000,서울특별시 서초구
2019-05-31,1544-7198,,,,,,,,20:00,09:00,,,,,,,0,0,0,0,2,2,,,서울특별시 강남구 남부순환로363길 13,127.025426,37.513659,,"서울특별시 강남구 강남대로 132길 55, 601호",영업소,플랫,3210000,서울특별시 서초구
2020-01-03,055-292-1700,백정기,,,,,,,18:00,09:00,,,,,,,,0,0,7,81,88,,경상남도 창원시 의창구 대산면 유등리 335-5,,128.5875880,35.2265994,경상남도 창원시 마산회원구 양덕동 157-2,"경상남도 창원시 마산회원구 해안대로 662, 3층",주사업장,베스트렌트카㈜,5670000,경상남도 창원시
2020-01-03,055-231-7000,이석해,,,,,,,18:00,09:00,,,,,,,,0,0,2,118,120,,경상남도 창원시 마산회원구 내서읍 중리 1127-4 외,경상남도 창원시 마산회원구 내서읍 중리공단로1길 31 외,128.5076922,35.2411433,경상남도 창원시 마산회원구 내서읍 중리 1127-4,경상남도 창원시 마산회원구 내서읍 중리공단로1길 31,주사업장,한성특운㈜,5670000,경상남도 창원시
2020-01-03,055-296-8000,김명진,,,,,,,18:00,09:00,,,,,,,,0,0,30,188,218,,경상남도 창원시 마산회원구 석전동 225-9 외,,128.5772152909,35.2361113652,경상남도 창원시 마산회원구 합성동 764-3,경상남도 창원시 마산회원구 마산역광장로 18,주사업장,㈜조은렌트카,5670000,경상남도 창원시
2020-01-03,055-296-8822,김종수,,,,,,,18:00,09:00,,,,,,,,0,0,13,135,148,,경상남도 창원시 마산회원구 양덕동 55-6,경상남도 창원시 마산회원구 양덕로 98 외,128.5871069,35.2327881,"경상남도 창원시 마산회원구 양덕동 46-8, 2층","경상남도 창원시 마산회원구 팔용로 36-1, 2층",주사업장,㈜오케이렌트카,5670000,경상남도 창원시
2020-01-03,055-603-0005,정진화,,,,,,,18:00,09:00,,,,,,,,0,0,11,118,129,,경상남도 창원시 마산회원구 합성동 267 외,경상남도 창원시 마산회원구 합성옛길 147 외,128.5448460,35.2366736,경상남도 창원시 마산회원구 두척동 312-2,경상남도 창원시 마산회원구 두척2길 62,주사업장,㈜안전렌터카,5670000,경상남도 창원시
2020-01-03,055-252-1559,조원제,,,,,,,18:00,09:00,,,,,,,,0,0,4,139,143,,경상남도 창원시 마산회원구 양덕동 155-1 외,경상남도 창원시 마산회원구 양덕남9길 87 외,128.5768610,35.2297607886,경상남도 창원시 마산회원구 석전동 246-10,경상남도 창원시 마산회원구 3·15대로 636,주사업장,㈜신한렌트카,5670000,경상남도 창원시
2020-01-03,055-251-9998,김인태,,,,,,,18:00,09:00,,,,,,,,0,0,6,85,91,,경상남도 창원시 마산회원구 석전동 237-1,경상남도 창원시 마산회원구 석전동8길 46 외,128.5916015,35.2464962,경상남도 창원시 마산회원구 구암동 78-8,경상남도 창원시 마산회원구 구암남3길 3,주사업장,스마트렌트카㈜,5670000,경상남도 창원시
2020-01-03,055-251-8844,정원길,,,,,,,18:00,09:00,,,,,,,,0,0,4,61,65,,경상남도 창원시 마산회원구 양덕동 174-5 외,경상남도 창원시 마산회원구 양덕로 11 외,128.5924720,35.2218125,경상남도 창원시 마산회원구 양덕동 174-5,경상남도 창원시 마산회원구 양덕로 11,주사업장,세븐렌트카㈜,5670000,경상남도 창원시
2020-01-03,055-264-1553,이창근,,,,,,,18:01,09:01,,,,,,,,0,0,12,134,146,,경상남도 창원시 마산합포구 진전면 오서리 659-7 외,경상남도 창원시 마산합포구 진전면 남해안대로 4486-37 외,128.5966268,35.2199412,경상남도 창원시 마산회원구 봉암동 469-6,"경상남도 창원시 마산회원구 봉양로 88, A동 211호",주사업장,골드렌트카㈜,5670000,경상남도 창원시
2020-01-03,055-232-7767,문상철,,,,,,,18:00,09:00,,,,,,,,0,0,6,82,88,,경상남도 창원시 마산합포구 진전면 오서리 49 외,경상남도 창원시 마산합포구 호산정달로 91 외,128.5160831037,35.2500075588,경상남도 창원시 마산회원구 내서읍 중리 1116-12,경상남도 창원시 마산회원구 내서읍 광려천남로 1-46,주사업장,경남기업렌트카㈜,5670000,경상남도 창원시
2020-01-03,055-245-1114,이성수,,,,,,,18:00,09:00,,,,,,,,0,0,3,70,73,,경상남도 창원시 마산합포구 오동동 17-135번지 지하주차장 외,경상남도 창원시 마산합포구 오동동10길 56(오동동) 외,128.5817869,35.2062512,경상남도 창원시 마산합포구 오동동 17-135,"경상남도 창원시 마산합포구 오동동10길 56, 305호(오동동)",주사업장,㈜엔젤렌트카,5670000,경상남도 창원시
2020-01-03,055-285-1992,이재민,,,,,,,18:00,09:00,,,,,,,,0,0,0,15,15,,"경상남도 창원시 의창구 대산면 제동리 617, 617-5",,128.6935260,35.2031771,경상남도 창원시 성산구 남산동 601-36,"경상남도 창원시 성산구 정동로162번길 26, 2층(남산동)",주사업장,씨티렌터카,5670000,경상남도 창원시
2020-01-03,055-262-1223,이정희,,,,,,,18:00,09:00,,,,,,,,0,0,5,60,65,,경상남도 창원시 의창구 대산면 유등리 335-4,경상남도 창원시 의창구 대산면 유등로332번길 43-10,128.5084770757,35.2472186547,경상남도 창원시 마산회원구 내서읍 중리 1050-1,경상남도 창원시 마산회원구 내서읍 중리상곡로 74,주사업장,성주글로벌,5670000,경상남도 창원시
2020-01-03,055-267-4677,최영화,,,,,,,18:00,09:00,,,,,,,,0,0,18,230,248,,"경상남도 창원시 성산구 상남동 77-2,3",,128.6774210,35.2180600,경상남도 창원시 성산구 상남동 69-1,"경상남도 창원시 성산구 상남로 37,덕산베스트텔 313호",주사업장,케이에스렌트카,5670000,경상남도 창원시
2020-01-03,055-238-4084,방윤희,http://www.제로렌트카.com,,,,20:00,07:00,20:00,07:00,,120000,120000,120000,80000,65000,60000,0,0,9,45,54,,경상남도 창원시 성산구 상남동 93-1,,128.6698907324,35.2449724240,경상남도 창원시 성산구 반지동 23,"경상남도 창원시 성산구 창원천로 292, 1-1호",주사업장,제로렌트카,5670000,경상남도 창원시
2020-01-03,055-282-3035,강점자,,,,,,,18:00,09:00,,,,,,,,0,0,0,8,8,,경상남도 창원시 성산구 상남동 25 Nest빌딩,"경상남도 창원시 성산구 마디미로38번길 11 (상남동,네스트빌딩)",128.6759250,35.2201304373,경상남도 창원시 성산구 중앙동 100-4,"경상남도 창원시 성산구 중앙대로 49, 서광오피스텔 402호",주사업장,세종렌트카,5670000,경상남도 창원시
2020-01-03,055-275-1444,추상도,,,,,,,18:00,09:00,,,,,,,,0,0,0,45,45,,경상남도 창원시 성산구 내동 452-13,경상남도 창원시 성산구 삼동로 128번길 2(내동),128.6795399757,35.2204410851,경상남도 창원시 성산구 상남동 73-4,"경상남도 창원시 성산구 상남로 71, 창원코아상가(상남동)",주사업장,성산렌트카,5670000,경상남도 창원시
2020-01-03,055-264-0047,조영근,,,,,18:00,09:00,18:00,09:00,480000,155000,240000,195000,145000,85000,79000,0,0,11,172,183,,경상남도 창원시 마산합포구 진북면 대티리 515-1,,128.6774084156,35.2180445611,경상남도 창원시 성산구 상남동 69-1,"경상남도 창원시 성산구 상남로 37, 덕산베스트텔 1231호 (상남동)",주사업장,뉴새한렌트카,5670000,경상남도 창원시
2020-01-03,070-4210-3546,이명삼,,,,,18:00,09:00,18:00,09:00,,,,210000,110000,,70000,0,0,8,24,32,,경상남도 창원시 마산합포구 진전면 오서리 49,경상남도 창원시 마산합포구 진전면 호산정달로 91,128.6685580,35.2175530,경상남도 창원시 성산구 내동 456-12,"경상남도 창원시 성산구 연덕로184번길 28, 공단쇼핑상가2층 29호",주사업장,우리렌트카,5670000,경상남도 창원시
2019-05-29,02-2088-5900,김춘홍,www.linkrentacar.co.kr,연중무휴,00:00,00:00,00:00,00:00,00:00,00:00,,,,,,,,0,0,1,52,53,,서울특별시 강서구 마곡동 727-26,"서울특별시 강서구 마곡동로10길 46(마곡동, 보타닉파크프라자)",126.9471567771,37.4917446595,서울특별시 관악구 성현동 1712-1,서울특별시 관악구 구암길 98,주사업장,링크렌터카,3200000,서울특별시 관악구
2019-05-29,02-852-6766,홍성문,www.lisbonrentcar.com,연중무휴,21:00,09:00,21:00,09:00,21:00,09:00,,,,,,,,0,0,8,103,111,,"서울특별시 관악구 신림동 1695, 중랑구 면목동 566-6","서울특별시 관악구 신원로 26, 중랑구 면목로53길 32",126.9293925,37.4804076,"서울특별시 관악구 신림동 1695, 120호",서울특별시 관악구 신원로 26,주사업장,리스본렌트카,3200000,서울특별시 관악구
2019-10-02,080-225-7777,,,,,,,,18:00,09:00,,,,,,,,0,0,1,12,13,,충청남도 서산시 잠홍동 263-4,충청남도 서산시 잠홍2길 110,126.4826228701,36.7885529,,충청남도 서산시 잠홍2길 110,영업소,㈜스카이렌트카 서산영업소,4530000,충청남도 서산시
2019-10-02,041-669-6056,,,,,,,,18:00,09:00,,,,,,,,0,0,0,4,4,,충청남도 서산시 잠홍동 584-1,충청남도 서산시 고운로 365,126.4750042458,36.7859537197,,충청남도 서산시 고운로 365,영업소,(유)진렌트카 서산영업소,4530000,충청남도 서산시
2019-10-02,041-664-1767,,,,,,,,18:00,09:00,,,,,,,,0,0,0,9,9,,충청남도 서산시 성연면 고남리 113,충청남도 서산시 충의로 567-23,126.4398132,36.8227454849,,충청남도 서산시 성연면 충의로 567-23,영업소,(합)동원렌트카 서산영업소,4530000,충청남도 서산시
2019-10-02,041-669-3479,,,,,,,,18:00,09:00,,,,,,,,0,0,1,19,20,,충청남도 서산시 예천동 488,충청남도 서산시 고운로 6-7,126.4506257,36.7800659,,"충청남도 서산시 읍내동 144-1, 서부상가 1층 85호",주사업장,구진렌트카㈜,4530000,충청남도 서산시
2019-10-02,041-688-6111,,,,,,,,18:00,09:00,,,,,,,,0,0,7,49,56,,충청남도 서산시 해미면 휴암리 226-1,충청남도 서산시 해미면 내포로 2486-8,126.5517238,36.7077085461,,충청남도 서산시 해미면 한티로 10,주사업장,(합)청훈렌트카,4530000,충청남도 서산시
2019-10-02,041-688-5650,,,,,,,,18:00,09:00,,,,,,,,0,0,3,34,37,,충청남도 서산시 해미면 대곡리 425-2,충청남도 서산시 해미면 한티로 337,126.5769715704,36.6893702,,충청남도 서산시 해미면 한티로 337,주사업장,(합)미래렌트카,4530000,충청남도 서산시
2019-12-02,02-576-5975,"이호근,전윤석",-,-,,,,,18:00,09:00,,,,,,,,0,0,0,19,19,23,경기도 과천시 과천동 555-47,,127.002192,37.453575,경기도 과천시 과천동 363-5,경기도 과천시 뒷골2로 10-1 1층(과천동),주사업장,에코렌터카㈜,3970000,경기도 과천시
2019-12-24,061-862-7899,임양배,,,18:00,09:00,18:00,09:00,18:00,09:00,0,0,0,0,0,0,0,0,0,1,2,3,300,전라남도 장흥군 장흥읍 원도리 279-1,전라남도 장흥군 장흥읍 장흥로90,126.9121700236,34.6854523443,전라남도 장흥군 장흥읍 원도리 279-1,전라남도 장흥군 장흥읍 장흥로90,영업소,한길렌트카 장흥영업소,4910000,전라남도 장흥군
2019-12-24,061-862-8033,황인신,,,18:00,09:00,18:00,09:00,18:00,09:00,0,0,0,0,0,0,0,0,0,2,10,12,220,전라남도 장흥군 장흥읍 건산리 208-7,전라남도 장흥군 장흥읍 남부관광로22,126.911956,34.676435,전라남도 장흥군 장흥읍 건산리 208-7,전라남도 장흥군 장흥읍 남부관광로22,영업소,동부렌트카 장흥영업소,4910000,전라남도 장흥군
2020-01-03,055-265-2142,배기욱,,,,,,,18:00,09:00,,,,,,,,0,0,27,201,228,,"창원시 의창구 대산면 모산리 381-17, 18",,128.7010759650,35.2386332485,경상남도 창원시 의창구 사림동 165-13,"경상남도 창원시 의창구 용동로 87, 504호",주사업장,(주)장풍물류렌터카,5670000,경상남도 창원시
2020-01-03,055-601-2580,박상구,,,,,,,18:00,09:00,,,,,,,,0,0,4,81,85,,창원시 성산구 마디미로73번길 25,,128.6173127173,35.2628531823,경상남도 창원시 의창구 서상동 351-5,"경상남도 창원시 의창구 천주로 1번길 14, 2층",주사업장,㈜한찬코리아,5670000,경상남도 창원시
2020-01-03,055-980-8282,남경숙,,,,,,,18:00,09:00,,,,,,,,0,0,9,65,74,,창원시 마산합포구 진전면 오서리 49,,128.6483037036,35.2431127098,경상남도 창원시 의창구 명서동 199-1,"경상남도 창원시 의창구 원이대로 258번길 3, 104호",주사업장,㈜행운렌트카,5670000,경상남도 창원시
2020-01-03,055-238-5655,김지영,,,,,,,18:00,09:00,,,,,,,,0,0,3,101,104,,"창원시 마산회원구 내서읍 중리 358-1,2",,128.6357891008,35.2586393751,경상남도 창원시 의창구 도계동 344-4,"경상남도 창원시 의창구 도계로 18번길 21, 2층",주사업장,㈜힐튼렌트카,5670000,경상남도 창원시
2020-01-03,070-4210-3546,신미경,,,,,,,18:00,09:00,,,,,,,,0,0,2,59,61,,,경상남도 창원시 의창구 신월로 42,128.6919406945,35.2280368576,경상남도 창원시 의창구 신월동 68-1,"경상남도 창원시 의창구 신월로 42, 602호",주사업장,㈜부경알엔티,5670000,경상남도 창원시
2020-01-03,055-210-6116,박현옥,,,,,,,18:00,09:00,,,,,,,,0,0,31,85,116,,창원시 대산면 제동리 617,,128.6878091702,35.2313425370,경상남도 창원시 의창구 신월동 100-5,경상남도 창원시 의창구 중앙대로210번길 3,주사업장,㈜경남렌트카,5670000,경상남도 창원시
2020-01-03,055-544-1515,정해식,,,,,,,18:00,09:00,,,,,,,,0,0,10,67,77,95,경상남도 창원시 죽곡동 207,경상남도 창원시 진해구 죽곡로 136,128.6606074889,35.152979,경상남도 창원시 진해구 여좌동 761-49,경상남도 창원시 진해구 충장로 73-14(경화동),주사업장,㈜진해군항렌트카,5670000,경상남도 창원시
2020-01-03,055-248-1122,김종운,,,,,,,18:00,09:00,,,,,,,,0,0,10,83,93,,경상남도 창녕군 고암면 우천리 999번지,경상남도 창녕군 고암면 월미상월길 6 외,128.5738138753,35.2078712724,경상남도 창원시 마산합포구 중성동 36-3,"경상남도 창원시 마산합포구 북성로 2, 2층(중성동, 종근당미보약국)",주사업장,제로알엔티㈜,5670000,경상남도 창원시
2020-01-03,055-244-8200,강상면,,,,,,,18:00,09:00,,,,,,,,0,0,9,104,113,,경상남도 창원시 마산합포구 산호동 323-2번지 가야빌딩 외,"경상남도 창원시 마산합포구 허당로 84, 가야빌딩(산호동) 외",128.5848562,35.2104974,경상남도 창원시 마산합포구 산호동 323-2,"경상남도 창원시 마산합포구 허당로 84, 2층 225호(산호동, 가야빌딩)",주사업장,㈜동아렌트카,5670000,경상남도 창원시
2020-01-03,055-245-1114,이성수,,,,,,,18:00,09:00,,,,,,,,0,0,3,70,73,,경상남도 창원시 마산합포구 오동동 17-135번지 지하주차장 외,경상남도 창원시 마산합포구 오동동10길 56(오동동) 외,128.5817869,35.2062512,경상남도 창원시 마산합포구 오동동 17-135,"경상남도 창원시 마산합포구 오동동10길 56, 305호(오동동)",주사업장,㈜엔젤렌트카,5670000,경상남도 창원시
2020-01-03,055-603-0005,정연욱,,,,,,,18:00,09:00,,,,,,,,0,0,0,140,140,,경상남도 밀양시 청도면 인산리 27-1 외,,128.5448082078,35.2366736085,경상남도 창원시 마산회원구 두척동 312-2,경상남도 창원시 마산회원구 두척2길 62,주사업장,에이엠렌터카,5670000,경상남도 창원시
2020-01-03,055-603-0005,정연동,,,,,,,18:00,09:00,,,,,,,,0,0,0,78,78,,경상남도 창원시 마산회원구 합성동 267 외,경상남도 창원시 마산회원구 3·15대로 750 외,128.5074186800,35.2415576258,경상남도 창원시 마산회원구 내서읍 중리 1127-2,"경상남도 창원시 마산회원구 내서읍 중리공단로1길 41, 2층",주사업장,투투렌트카㈜,5670000,경상남도 창원시
2020-01-03,055-262-7858,이정희,,,,,,,18:00,09:00,,,,,,,,0,0,4,60,64,,경상남도 창녕군 술정리 316-12,경상남도 창녕군  창녕읍 창녕대로31,128.6989204378,35.2075355148,경상남도 창원시 성산구 가음동 20-1,"경상남도 창원시 성산구 대정로 36, 22층16호",주사업장,케이디렌트카,5670000,경상남도 창원시
2020-01-03,055-601-2580,신미경,,,,,,,18:00,09:00,,,,,,,,0,0,3,61,64,,경상남도 창원시 성산구 상남동 35-6 신우주차빌딩,경상남도 창원시 성산구 마디미로73번길 25,128.6685425295,35.2175542786,경상남도 창원시 성산구 내동 456-12,"경상남도 창원시 성산구 연덕로 184번길 28,공단상가3동2층30호(내동)경상남도 창원시 성산구 내동 456-12공단상가3동2층30호(내동)",주사업장,유성렌트카,5670000,경상남도 창원시
2019-09-27,052-283-2115,,,,,,,,18:00,09:00,,,,,,,,0,0,8,70,78,,,울산광역시 중구 내황2길 9,129.3415005030,35.5535218405,,울산광역시 중구 내황2길 9,영업소,㈜한지렌트카 울산영업소,6310000,울산광역시
2019-09-27,052-903-8387,,,,,,,,18:00,09:00,,,,,,,,0,0,1,7,8,,,울산광역시 남구 삼산동 1542-8,129.343876,35.544476,,울산광역시 남구 삼산동 1542-8,영업소,㈜렌트카엠 울산영업소,6310000,울산광역시
2019-09-27,052-708-9000,,,,,,,,18:00,09:00,,,,,,,,0,0,0,15,15,,,울산광역시 남구 달동 1252-4,129.3425947174,35.5435349008,,울산광역시 남구 돋질로 346,영업소,㈜현대렌트카-양산 울산남구영업소,6310000,울산광역시
2019-09-27,052-268-5855,,,,,,,,18:00,09:00,,,,,,,,0,0,6,46,52,,,울산광역시 울주군 범서읍 대리로 99,129.2496129013,35.5661607106,,울산광역시 울주군 범서읍 대리로 99,주사업장,㈜현대렌트카,6310000,울산광역시
2019-09-27,052-227-8050,,,,,,,,18:00,09:00,,,,,,,,0,0,3,143,146,,,울산광역시 남구 정동로 128,129.3449306279,35.5451546269,,울산광역시 남구 정동로 128,주사업장,뉴곰두리렌터카㈜,6310000,울산광역시
2019-09-27,052-256-7775,,,,,,,,18:00,09:00,,,,,,,,0,0,1,72,73,,,울산광역시 북구 진장동 명촌구획지구 58B 2L,129.358783,35.5611513790,,울산광역시 북구 염포로 177,주사업장,㈜제일렌트카,6310000,울산광역시
2019-09-27,052-292-7054,,,,,,,,18:00,09:00,,,,,,,,0,0,11,61,72,,,울산광역시 북구 신천동 158-12,129.337143,35.5564066527,,울산광역시 중구 학성로 241(학성동),주사업장,울산렌트카㈜,6310000,울산광역시
2019-09-27,052-286-0000,,,,,,,,19:00,09:00,,,,,,,,0,0,6,50,56,,,울산광역시 북구 명촌7길 6(진장동),129.3588047807,35.5566047705,,울산광역시 북구 명촌7길 6(진장동),주사업장,에이스렌터카㈜,6310000,울산광역시
2019-09-27,052-289-8900,,,,,,,,18:00,09:00,,,,,,,,0,0,9,86,95,,,울산광역시 울주군 두서면 복안리 407,129.358053,35.559591,,울산광역시 북구 명촌1길 18-12 101호(진장동),주사업장,㈜대동렌트카,6310000,울산광역시
2019-09-27,052-283-7030,,,,,,,,18:00,09:00,,,,,,,,0,0,13,123,136,,,울산광역시 북구 효암로 164,129.365196,35.5619188944,,울산광역시 북구 효암로 164(효문동),주사업장,금강렌트카㈜,6310000,울산광역시
2019-09-27,052-233-3535,,,,,,,,19:00,09:00,,,,,,,,0,0,31,212,243,,,울산광역시 동구 방어동 928-29,129.4160727621,35.4879892514,,울산광역시 동구 후릉길 1(방어동),주사업장,곰두리렌터카㈜,6310000,울산광역시
2019-09-27,052-269-6555,,,,,,,,18:00,09:00,,,,,,,,0,0,4,75,79,,,울산광역시 남구 월평로159번길 24(신정동),129.3223392897,35.5471779183,,울산광역시 남구 월평로159번길 24(신정동),주사업장,㈜뉴현대렌트카,6310000,울산광역시
2019-09-27,052-256-2188,,,,,,,,18:00,09:00,,,,,,,,0,0,5,68,73,,,울산광역시 남구 화합로 210번길 3,129.3402307784,35.5435267610,,울산광역시 남구 화합로 210번길 3(삼산동),주사업장,㈜나우렌트카,6310000,울산광역시
2019-09-27,052-283-1110,,,,,,,,18:00,09:00,,,,,,,,0,0,7,47,54,,,울산광역시 남구 번영로 124번길7,129.3407871430,35.5402144849,,울산광역시 남구 삼산로 309(삼산동대성타워7층),주사업장,㈜현대하이렌트카,6310000,울산광역시
2019-09-27,052-269-1551,,,,,,,,19:00,09:00,,,,,,,,0,0,15,172,187,,,울산광역시 남구 화합로 209,129.339065,35.5435559537,,울산광역시 남구 화합로 209(삼산동),주사업장,(유)타이거렌트카,6310000,울산광역시
2019-09-27,052-257-8119,,,,,,,,18:00,09:00,,,,,,,,0,0,12,45,57,,,울산광역시 중구 학성동 82-5,129.315923,35.5396283098,,울산광역시 남구 중앙로 204번길 32-1(101호신정동),주사업장,㈜금성교역,6310000,울산광역시
2019-10-02,1661-3315,,,,,,,,18:00,09:00,,,,,,,,0,0,0,0,0,,충청남도 서산시 동문동 909-12,충청남도 서산시 동문동 909-12,126.4574775,36.7805234,,충청남도 서산시 동문동 909-12,영업소,㈜쏘카 서산점,4530000,충청남도 서산시
2019-10-02,041-664-1680,,,,,,,,18:00,09:00,,,,,,,,0,0,2,7,9,,"충청남도 서산시 읍내동 10-7, 9",충청남도 서산시 읍내6로 33,126.4521271,36.7796411,,충청남도 서산시 읍내동 10-13,영업소,㈜우리렌트카 서산영업소,4530000,충청남도 서산시
2019-10-02,041-668-1235,,,,,,,,18:00,09:00,,,,,,,,0,0,1,10,11,,충청남도 서산시 예천동 489-4,충청남도 서산시 예천동 489-4,126.4441121,36.7738227,,충청남도 서산시 예천동 491,영업소,㈜조은렌트카 서산영업소,4530000,충청남도 서산시
2019-10-02,041-668-2847,,,,,,,,18:00,09:00,,,,,,,,0,0,1,1,2,,충청남도 서산시 석림동 647-13,충청남도 서산시 한마음10길 12,126.4664985005,36.7769625013,,"충청남도 서산시 벌말1길 46-7, 2층(동문동)",영업소,에이제이렌터카㈜ 서산영업소,4530000,충청남도 서산시
2019-10-02,043-237-8281,,,,,,,,18:00,09:00,,,,,,,,0,0,0,6,6,,충청남도 서산시 인지면 둔당리 256-6,충청남도 서산시 인지면 둔당리 256-6,126.459552,36.7801134,,충청남도 서산시 율지4로 4,영업소,㈜삼성렌트카,4530000,충청남도 서산시
2019-10-02,041-681-5507,,,,,,,,18:00,09:00,,,,,,,,0,0,2,4,6,,충청남도 서산시 대산읍 대산리 148-16,충청남도 서산시 충의로 1903-1,126.4363809,36.9348763,,충청남도 서산시 대산읍 충의로 1899,영업소,(자)기풍렌트카 서산영업소,4530000,충청남도 서산시
2019-10-02,041-668-7922,,,,,,,,18:00,09:00,,,,,,,,0,0,0,3,3,,충청남도 서산시 예천동 555-1,충청남도 서산시 충의로 47,126.4603818958,36.7821432972,,충청남도 서산시 율지8로 9,영업소,(자)기풍렌트카 서산2영업소,4530000,충청남도 서산시
2019-10-02,041-855-8000,,,,,,,,18:00,09:00,,,,,,,,0,0,33,476,509,,충청남도 서산시 성연면 일람리 803/803-6,충청남도 서산시 성연면 일람리 803/803-6,126.4596323,36.7715926,,충청남도 서산시 서해로 3437 원진빌딩 2층,영업소,롯데렌탈㈜ 서산영업소,4530000,충청남도 서산시
2019-10-02,041-682-2222,,,,,,,,18:00,09:00,,,,,,,,0,0,3,17,25,,충청남도 서산시 대산읍 대산리 150-50,충청남도 서산시 충의로 1857,126.4393752987,36.9319518032,,충청남도 서산시 대산읍 충의로 1857,영업소,㈜금강렌트카 대산영업소,4530000,충청남도 서산시
2019-10-02,041-663-8555,,,,,,,,18:00,09:00,,,,,,,,0,0,5,15,20,,충청남도 서산시 읍내동 102-14,충청남도 서산시 읍내3로 14-8,126.4499699813,36.7787435034,,충청남도 서산시 읍내3로 14-8(읍내동),영업소,㈜금강렌트카 서산영업소,4530000,충청남도 서산시
2019-10-02,041-669-0369,,,,,,,,18:00,09:00,,,,,,,,0,0,0,0,0,,충청남도 서산시 예천동 1256-2,충청남도 서산시 호수공원8로 4-16,126.4514077891,36.7737868586,,"충청남도 서산시 호수공원8로 4-16, 5층",영업소,㈜에이치케이나라렌트카 서산영업소,4530000,충청남도 서산시
2019-10-02,041-667-4044,,,,,,,,18:00,09:00,,,,,,,,0,0,0,0,0,,충청남도 서산시 읍내동 31-15,충청남도 서산시 대지제2로 7,126.4526245,36.7681011318,,충청남도 서산시 서해로 3364-20,영업소,㈜하나렌터카 서산영업소,4530000,충청남도 서산시
2019-09-27,052-289-7114,,,,,,,,18:00,09:00,,,,,,,,0,0,0,3,3,,,울산광역시 남구 산업로 617,129.3514113927,35.5364827582,,울산광역시 남구 산업로 617,영업소,㈜더라임 울산영업소,6310000,울산광역시
2019-09-27,052-257-7177,,,,,,,,18:00,09:00,,,,,,,,0,0,0,9,9,,,울산광역시 남구 신정동 170-2,129.319009,35.540448,,울산광역시 남구 신정동 170-2,영업소,㈜고고렌트카 울산남구영업소,6310000,울산광역시
2019-09-27,052-272-3434,,,,,,,,18:00,09:00,,,,,,,,0,0,1,20,21,,,울산광역시 남구 화합로102번길 11-11,129.3429792883,35.5347763633,,울산광역시 남구 화합로102번길 11-11,영업소,㈜부경알엔티 울산영업소,6310000,울산광역시
2019-09-27,052-262-9889,,,,,,,,18:00,09:00,,,,,,,,0,0,0,6,6,,,울산광역시 울주군 언양읍 어음리 76-6,129.1237762233,35.561879,,울산광역시 울주군 삼남면 중평강변길 21,영업소,㈜극동오토렌탈 언양영업소,6310000,울산광역시
2019-09-27,052-266-7277,,,,,,,,18:00,09:00,,,,,,,,0,0,0,13,13,,,울산광역시 북구 신천동 386-20,129.3450170401,35.6331098406,,울산광역시 북구 산업로 1425(신천동),영업소,㈜극동오토렌탈 울산영업소,6310000,울산광역시
2019-09-27,052-264-8882,,,,,,,,18:00,09:00,,,,,,,,0,0,1,2,3,,,울산광역시 울주군 두동면 봉계리 539-4,129.198151,35.7127600524,,울산광역시 울주군 두동면 계명1길 25-1,영업소,㈜세종통운 울산영업소,6310000,울산광역시
2019-09-27,052-288-8853,,,,,,,,18:00,09:00,,,,,,,,0,0,0,6,6,,,울산광역시 북구 진장동 518-1(18B 33L),129.3571657790,35.5694605949,,울산광역시 북구 진장로 94(진장동),영업소,㈜경일알씨 울산영업소,6310000,울산광역시
2019-09-27,052-289-8282,,,,,,,,18:00,09:00,,,,,,,,0,0,0,2,2,,,울산광역시 북구 달천동 489-34,129.365655,35.581202,,울산광역시 북구 연암동 316-1,영업소,오토랜드세이프㈜ 울산영업소,6310000,울산광역시
2019-09-27,052-227-1175,,,,,,,,18:00,09:00,,,,,,,,0,0,0,1,1,,,울산광역시 남구 무거동 463,129.331404,35.533353,,울산광역시 남구 달동 1297-151동 2층 3호,영업소,하나렌트카㈜ 울산남구영업소,6310000,울산광역시
2019-09-27,070-4323-3299,,,,,,,,18:00,09:00,,,,,,,,0,0,3,10,13,,,울산광역시 북구 진장유통로 16 진장디플렉스(진장동),129.358059,35.572351,,울산광역시 북구 진장동 285-3 진장디플렉스 2138호,영업소,㈜삼천리렌트카 북울산영업소,6310000,울산광역시
2019-09-27,052-266-9887,,,,,,,,18:00,09:00,,,,,,,,0,0,4,44,48,,,울산광역시 남구 신정동 727-12,129.310885,35.532543,,울산광역시 남구 신정동 727-12,영업소,㈜삼천리렌트카 남울산영업소,6310000,울산광역시
2019-09-27,052-296-3200,,,,,,,,18:00,09:00,,,,,,,,0,0,1,9,10,,,울산광역시 북구 진장동 771-3,129.355176,35.5602849887,,울산광역시 북구 진장동 771-3,영업소,㈜삼천리렌트카 울산영업소,6310000,울산광역시
2019-09-27,052-239-9946,,,,,,,,18:00,09:00,,,,,,,,0,0,1,26,27,,,울산광역시 울주군 온산읍 덕신리 523,129.3074292587,35.4317957108,,울산광역시 울주군 온산읍 신경5길 22,영업소,㈜VIP렌트카-포항 온산영업소,6310000,울산광역시
2019-09-27,052-288-3800,,,,,,,,18:00,09:00,,,,,,,,0,0,1,8,9,,,울산광역시 남구 산업로 679,129.3531088745,35.5416072676,,울산광역시 남구 산업로 679,영업소,㈜VIP렌트카-대구 울산영업소,6310000,울산광역시
2019-09-27,052-276-3030,,,,,,,,18:00,09:00,,,,,,,,0,0,2,16,18,,,울산광역시 남구 달동 1288-7,129.334477,35.534094,,울산광역시 남구 달동 1288-7,영업소,㈜오케이렌트카 울산영업소,6310000,울산광역시
2019-09-27,052-245-6622,,,,,,,,18:00,09:00,,,,,,,,0,0,0,15,15,,,울산광역시 남구 산업로 585번지 28(여천동 1252-3),129.338633,35.533959,,울산광역시 남구 달동 1305-10번지(꽃대나리로79),영업소,㈜신세계-진주 울산영업소,6310000,울산광역시
2019-09-27,052-283-4972,,,,,,,,18:00,09:00,,,,,,,,0,0,1,37,38,,,울산광역시 남구 신정동 248-15/249-9,129.318545,35.546123,,울산광역시 남구 신정동 248-15,영업소,㈜VIP렌트카-포항 남울산영업소,6310000,울산광역시
2019-09-27,052-258-0568,,,,,,,,18:00,09:00,,,,,,,,0,0,1,31,4,,,울산광역시 남구 법대로 15(옥동),129.282871,35.537802,,울산광역시 남구 법대로 15 101호(옥동),영업소,SK네트웍스㈜ SK렌트카 울산영업소,6310000,울산광역시
2019-09-27,052-283-2114,,,,,,,,18:00,09:00,,,,,,,,0,0,1,13,14,,,울산광역시 남구 무거동 1527-3,129.3415005030,35.5535218405,,울산광역시 중구 내황2길 9(반구동),영업소,㈜한진렌트카 울산제2영업소,6310000,울산광역시
2019-09-27,052-900-5440,,,,,,,,18:00,09:00,,,,,,,,0,0,2,21,23,,,울산광역시 남구 달동 1250-1,129.330711,35.537501,,울산광역시 남구 달동 1250-1,영업소,㈜한진렌트카 울산영업소,6310000,울산광역시
2019-09-27,052-275-3771,,,,,,,,18:00,09:00,,,,,,,,0,0,0,0,0,,,울산광역시 중구 옥골샘3길 6,129.319454,35.541388,,울산광역시 남구 신정로 111 동해오피스텔 1004호,영업소,㈜레드캡투어 울산영업소,6310000,울산광역시
2019-09-27,052-256-4000,,,,,,,,18:00,09:00,,,,,,,,0,0,0,19,19,,,울산광역시 남구 달동 589-2,129.327159,35.538502,,울산광역시 남구 번영로 147 1층(달동),영업소,㈜에프에이렌트카 울산제2영업소,6310000,울산광역시
2019-09-27,052-275-1100,,,,,,,,18:00,09:00,,,,,,,,0,0,0,15,15,,,울산광역시 북구 신천동 546-2,129.342358,35.540651,,울산광역시 남구 삼산동 1563-10,영업소,㈜에프에이렌트카 울산제1영업소,6310000,울산광역시
2019-09-27,052-283-4500,,,,,,,,18:00,09:00,,,,,,,,0,0,1,25,26,,,울산광역시 북구 진장동 명촌지구 60B-2L,129.357995,35.571524,,울산광역시 북구 진장동 명촌지구 58B-13L,영업소,㈜오케이렌트카 울산북구영업소,6310000,울산광역시
2019-09-27,052-267-6100,,,,,,,,18:00,09:00,,,,,,,,0,0,6,128,134,,,울산광역시 남구 산업로 643번길 17,129.349715,35.5384365768,,울산광역시 남구 산업로 643번길 17,영업소,㈜에이제이렌트카 울산영업소,6310000,울산광역시
2019-09-27,052-264-4242,,,,,,,,19:00,09:00,,,,,,,,0,0,0,51,51,,,울산광역시 울주군 삼남면 신화리 24-3,129.138911,35.553056,,울산광역시 울주군 삼남면 신화리 산3-3,영업소,㈜유카 울산역영업소,6310000,울산광역시
2019-09-27,052-223-8000,,,,,,,,18:00,09:00,,,,,,,,0,0,37,802,839,,,울산광역시 북구 진장동 285-6 401호,129.358007,35.571318,,울산광역시 북구 진장유통로 8-10 203호,영업소,롯데렌탈㈜ 울산영업소,6310000,울산광역시
2019-09-27,052-227-4982,,,,,,,,18:00,09:00,,,,,,,,0,0,0,9,9,,,울산광역시 남구 봉월로 68(신정동),129.3051822747,35.5394193469,,울산광역시 남구 봉월로 77(신정동),영업소,㈜플러스렌트카 울산영업소,6310000,울산광역시
2019-09-27,051-323-2449,,,,,,,,18:00,09:00,,,,,,,,0,0,0,1,1,,,울산광역시 남구 장생포고래로 292,129.3850027212,35.5055006346,,울산광역시 남구 장생포고래로 292,영업소,㈜조이렌트카 울산영업소,6310000,울산광역시
2019-01-01,062-954-9339,,,,,,,,18:00,09:00,,,,,,,,0,0,23,54,77,,광주광역시 광산구 신촌동 682-16,광주광역시 광산구 상무대로 431 (신촌동),126.813134,35.144343,광주광역시 광산구 신촌동 682-16,광주광역시 광산구 상무대로 431 (신촌동),주사업장,(유)은하수렌트카,3630000,광주광역시 광산구
2019-01-01,062-675-9191,,,,,,,,18:00,09:00,,,,,,,,0,0,3,148,151,,전라남도 나주시 산포면 등정리 936-13,전라남도 나주시 산포면 산남로 137,126.827923,35.045680,전라남도 나주시 산포면 등정리 936-4,"전라남도 나주시 산포면 산남로 137, 202호(등정리)",영업소,㈜대현렌트카,3630000,광주광역시 광산구
2019-01-01,062-675-9191,,,,,,,,18:00,09:00,,,,,,,,0,0,1,0,1,,광주광역시 서구 매월동 621-31,광주광역시 서구 매월1로 50-5 (매월동),126.817177,35.144088,광주광역시 광산구 신촌동 682-111,광주광역시 광산구 상무대로 469 (신촌동),주사업장,㈜대현렌트카,3630000,광주광역시 광산구
2019-01-01,062-383-3993,,,,,,,,18:00,09:00,,,,,,,,0,0,1,58,59,,광주광역시 북구 각화동 380,광주광역시 북구 동문대로 280 (각화동),126.817414,35.143544,광주광역시 광산구 신촌동 682-3,"광주광역시 광산구 상무대로 471, 201 (신촌동)",주사업장,(유)유일렌트카,3630000,광주광역시 광산구
2019-01-01,070-4217-0112,,,,,,,,18:00,09:00,,,,,,,,0,0,2,14,16,,광주광역시 광산구 송정동 848-19,광주광역시 광산구 광산로 10-9 (송정동),126.791007,35.136078,광주광역시 광산구 송정동 1500-1,광주광역시 광산구 상무대로 186 (송정동),주사업장,(유)렌트카투유,3630000,광주광역시 광산구
2019-01-01,070-4217-0112,,,,,,,,18:00,09:00,,,,,,,,0,0,7,45,52,,광주광역시 광산구 도천동 122-43,광주광역시 광산구 임방울대로 611-14 (도천동),126.791007,35.136078,광주광역시 광산구 송정동 1500-1,광주광역시 광산구 상무대로 186 (송정동),주사업장,(유)렌트카투유,3630000,광주광역시 광산구
2019-01-01,062-942-5222,,,,,,,,18:00,09:00,,,,,,,,0,0,2,32,34,,경기도 수원시 대황교동 100-3,경기도 수원시 권선구 정조로 209,127.021817,37.229196,경기도 수원시 권선구 대황교동 100-3,경기도 수원시 권선구 정조로 209 (대황교동),영업소,㈜미소렌트카,3630000,광주광역시 광산구
2019-12-24,031-635-3467,,,,,,,,20:00,08:30,,,,,,,,0,0,3,15,18,,경기도 이천시 부발읍 수정리 55-10,경기도 이천시 남천로 72,127.445245,37.2767204447,,경기도 이천시 남천로 72,영업소,㈜뉴현대드림렌트카,4070000,경기도 이천시
2019-01-01,062-942-5222,,,,,,,,18:00,09:00,,,,,,,,0,0,0,38,38,,광주광역시 광산구 신창동 1021-19,광주광역시 광산구 풍영정길 65-15 (신창동),126.788308,35.133252,광주광역시 광산구 송정동 918-3,"광주광역시 광산구 상무대로 137-2, 201호 (송정동)",주사업장,㈜미소렌트카,3630000,광주광역시 광산구
2019-06-20,053-384-0101,,,,,,,,18:00,09:00,,,,,,,,0,0,2,30,32,,,경상북도 칠곡군 동명면 경북대로 862,128.550399,35.989709,,경상북도 칠곡군 동명면 동명팔거천2길 59-3,영업소,영일산업㈜ 칠곡영업소,5220000,경상북도 칠곡군
2019-06-20,054-972-9998,,,,,,,,19:00,08:30,,,,,,,,0,0,1,2,3,,,경상북도 칠곡군 북삼읍 칠곡대로 343-12,128.33637933,36.074716,,경상북도 칠곡군 석적읍 장곡길 205,영업소,㈜국제렌트카 칠곡영업소,5220000,경상북도 칠곡군
2019-06-20,054-977-9955,,,,,,,,22:00,09:00,,,,,,,,0,0,0,14,14,,,경상북도 칠곡군 북삼읍 칠곡대로 343-12,128.33637933,36.072781,,경상북도 칠곡군 북삼읍 북삼로 58,영업소,(합)오토렌트카 구미영업소,5220000,경상북도 칠곡군
2019-06-20,054-975-7007,,,,,,,,18:30,08:30,,,,,,,,0,0,2,18,20,,,경상북도 칠곡군 왜관읍 칠곡대로 1752-15,128.423080107,35.983525,,경상북도 칠곡군 왜관읍 칠곡대로 1746,영업소,㈜뉴그린렌트카 칠곡영업소,5220000,경상북도 칠곡군
2019-09-27,052-269-5200,,,,,,,,18:00,09:00,,,,,,,,0,0,0,15,15,,,울산광역시 남구 신정동 249-9,129.318545,35.5458598391,,울산광역시 남구 월평로129번길 21,영업소,㈜알앤에이 울산영업소,6310000,울산광역시
2019-09-27,052-288-3560,,,,,,,,18:00,09:00,,,,,,,,0,0,0,10,10,,,울산광역시 남구 대학로84번길 9-1,129.354909,35.557435,,울산광역시 북구 명촌18길 4,영업소,마춤카㈜ 울산영업소,6310000,울산광역시
2019-09-27,052-256-9191,,,,,,,,18:00,09:00,,,,,,,,0,0,1,10,11,,,울산광역시 남구 대학로84번길 9-1,129.324232,35.5355285192,,울산광역시 남구 신정로34번길 17,영업소,㈜칸렌트카 울산영업소,6310000,울산광역시
2019-09-27,052-269-8282,,,,,,,,18:00,09:00,,,,,,,,0,0,0,0,0,,,울산광역시 남구 산업로 697,129.3543937162,35.5427175041,,울산광역시 남구 산업로 697,영업소,㈜투투렌터카 울산삼산영업소,6310000,울산광역시
2019-09-27,052-256-7859,,,,,,,,18:00,09:00,,,,,,,,0,0,0,15,15,,,울산광역시 북구 명촌23길 34,129.3222853984,35.5404173996,,울산광역시 남구 돋질로 154,영업소,㈜솔렌트카 울산영업소,6310000,울산광역시
2019-09-27,052-953-3000,,,,,,,,18:00,09:00,,,,,,,,0,0,0,4,4,,,울산광역시 남구 옥현로 123,129.139384,35.557889,,울산광역시 울주군 언양로 127,영업소,㈜이렌트카 울산영업소,6310000,울산광역시
2019-09-27,052-262-8200,,,,,,,,18:00,09:00,,,,,,,,0,0,7,40,47,,,울산광역시 울주군 삼남면 교동리 1626-3,129.1184154120,35.5548851632,,울산광역시 울주군 삼남면 동향교2길 1,영업소,㈜뉴예스렌트카,6310000,울산광역시
2019-09-27,052-708-0008,,,,,,,,18:00,09:00,,,,,,,,0,0,0,0,0,,,울산광역시 남구 신정동 57-3번지,129.322066,35.547256,,울산광역시 남구 신정동 57-3번지외 3,영업소,㈜신세계-양산 울산신정영업소,6310000,울산광역시
2019-09-27,070-4659-6905,,,,,,,,00:00,09:00,,,,,,,,0,0,0,143,143,,,울산광역시 남구 무거동 629-11,129.2607259694,35.5423374374,,울산광역시 남구 대학로84번길 9-1,영업소,㈜쏘카 울산영업소,6310000,울산광역시
2019-09-27,052-227-7155,,,,,,,,18:00,09:00,,,,,,,,0,0,0,12,12,,,울산광역시 울주군 온산읍 온산로 286,129.334056,35.534637,,울산광역시 남구 꽃대나리로37번길 8 2층(달동),영업소,㈜신세계-진주 남울산영업소,6310000,울산광역시
2019-09-27,070-7813-4499,,,,,,,,18:00,09:00,,,,,,,,0,0,0,5,5,,,울산광역시 남구 팔등로 41번길 17 은월주차장,129.339677,35.539057,,울산광역시 남구 화합로 162 나인파크오피스텔 1720호,영업소,투투렌트카(유) 울산영업소,6310000,울산광역시
2019-09-27,052-227-4572,,,,,,,,18:00,09:00,,,,,,,,0,0,0,9,9,,,울산광역시 중구 학산동 167-4(옥골샘3길 6),129.326212,35.536422,,울산광역시 남구 달동 118-1 현대아파트상가 B동 205호,영업소,㈜오케이렌트카 울산바른영업소,6310000,울산광역시
2019-09-27,052-708-0008,,,,,,,,18:00,09:00,,,,,,,,0,0,0,23,23,,,울산광역시 남구 달동 1252-외 3필지,129.3425947174,35.5435349008,,울산광역시 남구 돋질로 346(삼산동),영업소,㈜신세계 울산남구영업소,6310000,울산광역시
2019-09-27,052-901-0501,,,,,,,,18:00,09:00,,,,,,,,0,0,0,2,2,,,울산광역시 남구 야음동 199-4,129.340291,35.523867,,울산광역시 남구 야음동 199-42층,영업소,㈜한진 울산영업소,6310000,울산광역시
2019-09-27,052-269-5080,,,,,,,,18:00,09:00,,,,,,,,0,0,1,15,16,,,울산광역시 남구 신정동 732-4,129.3110176938,35.5320918855,,울산광역시 남구 수암로 25,영업소,㈜뉴그린렌트카 울산영업소,6310000,울산광역시
2019-01-01,062-261-5500,,,,,,,,18:00,09:00,,,,,,,,0,0,0,2,2,,경기도 오산시 궐동 663,"경기도 오산시 법원로 61, 203호 (궐동)",127.058161,37.158425,경기도 오산시 궐동 663,"경기도 오산시 법원로 61, 203호 (궐동)",영업소,㈜독도렌트카,3630000,광주광역시 광산구
2019-01-01,062-261-5500,,,,,,,,18:00,09:00,,,,,,,,0,0,2,15,17,,,전라남도 나주시 다시면 영산로 4170 (송촌리),126.712021,35.017491,전라남도 나주시 송월동 1092-4,전라남도 나주시 왕건길 33-8(송월동),영업소,㈜독도렌트카,3630000,광주광역시 광산구
2019-01-01,062-261-5500,,,,,,,,18:00,09:00,,,,,,,,0,0,2,38,40,,전라남도 나주시 다시면 가운리 156-2,전라남도 나주시 다시면 영산로 4837,126.712021,35.017491,전라남도 나주시 송월동 1092-4,전라남도 나주시 왕건길 33-8(송월동),영업소,㈜독도렌트카,3630000,광주광역시 광산구
2019-01-01,062-261-5500,,,,,,,,18:00,09:00,,,,,,,,0,0,0,2,2,,광주광역시 북구 신안동 133-19,광주광역시 북구 무등로180번길 9-15,126.806856,35.150324,광주광역시 광산구 도천동 1-103,광주광역시 광산구 사암로 885 (도천동),주사업장,㈜독도렌트카,3630000,광주광역시 광산구
2019-01-01,062-261-5500,,,,,,,,18:00,09:00,,,,,,,,0,0,1,18,19,,광주광역시 동구 충장로5가 60-3,광주광역시 동구 구성로 160-1 (충장로5가),126.806856,35.150324,광주광역시 광산구 도천동 1-103,광주광역시 광산구 사암로 885 (도천동),주사업장,㈜독도렌트카,3630000,광주광역시 광산구
2019-01-01,062-261-5500,,,,,,,,18:00,09:00,,,,,,,,0,0,2,12,14,,광주광역시 북구 각화동 505-5,광주광역시 북구 동문대로216번길 12-6 (각화동),126.806856,35.150324,광주광역시 광산구 도천동 1-103,광주광역시 광산구 사암로 885 (도천동),주사업장,㈜독도렌트카,3630000,광주광역시 광산구
2019-01-01,062-261-5500,,,,,,,,18:00,09:00,,,,,,,,0,0,4,38,42,,광주광역시 광산구 도천동 1-103,광주광역시 광산구 사암로 885 (도천동),126.806856,35.150324,광주광역시 광산구 도천동 1-103,광주광역시 광산구 사암로 885 (도천동),주사업장,㈜독도렌트카,3630000,광주광역시 광산구
2019-01-01,062-959-7774,,,,,,,,18:00,09:00,,,,,,,,0,0,1,25,26,,,인천광역시 연수구 센트럴로 225 (송도동),126.677876,37.466222,인천광역시 미추홀구 주안동 25-34,"인천광역시 미추홀구 염창로 35, 607호 (주안동, 베스티움)",영업소,㈜이화렌트카,3630000,광주광역시 광산구
2019-01-01,062-959-7774,,,,,,,,18:00,09:00,,,,,,,,0,0,1,72,73,,광주광역시 광산구 도천동 143-42번지,광주광역시 광산구 상완길 314-36 (도천동),126.826947,35.209398,광주광역시 광산구 도천동 143-13,광주광역시 광산구 상완길 314-22 (도천동),주사업장,㈜이화렌트카,3630000,광주광역시 광산구
2019-01-01,062-959-7774,,,,,,,,18:00,09:00,,,,,,,,0,0,0,51,51,,광주광역시 광산구 양산동 130-1,광주광역시 광산구 본동로 475-14,126.826973,35.209398,광주광역시 광산구 도천동 143-13,광주광역시 광산구 상완길 314-22 (도천동),주사업장,㈜이화렌트카,3630000,광주광역시 광산구
2019-01-01,062-959-7774,,,,,,,,18:00,09:00,,,,,,,,0,0,5,118,123,,광주광역시 북구 각화동 380,광주광역시 북구 동문대로 280 (각화동),126.826973,35.209398,광주광역시 광산구 도천동 143-13,광주광역시 광산구 상완길 314-22 (도천동),주사업장,㈜이화렌트카,3630000,광주광역시 광산구
2019-01-01,062-959-7774,,,,,,,,18:00,09:00,,,,,,,,0,0,4,5,9,,전라남도 구례군 구례읍 봉남리 46-40,전라남도 구례군 구례읍 봉성로 7,127.464077,35.202986,전라남도 구례군 구례읍 봉남리 46-40,전라남도 구례군 구례읍 봉성로 7 (봉남리),영업소,(유)하나렌트카,3630000,광주광역시 광산구
2019-01-01,062-959-7774,,,,,,,,18:00,09:00,,,,,,,,0,0,1,5,6,,전라남도 고흥군 도덕면 봉덕리 885-3,전라남도 고흥군 도덕면 오마로 124,127.288195,34.607270,전라남도 고흥군 고흥읍 남계리 644-9,전라남도 고흥군 고흥읍 봉동주공길 6 (남계리),영업소,(유)하나렌트카,3630000,광주광역시 광산구
2019-01-01,062-959-7774,,,,,,,,18:00,09:00,,,,,,,,0,0,5,41,46,,광주광역시 광산구 복룡동 538-4,광주광역시 광산구 송대길 28-2 (복룡동),126.826973,35.209398,광주광역시 광산구 도천동 143-13,광주광역시 광산구 상완길 314-22 (도천동),주사업장,(유)하나렌트카,3630000,광주광역시 광산구
2019-01-01,062-682-0029,,,,,,,,18:00,09:00,,,,,,,,0,0,1,19,20,,전라남도 장성군 장성읍 영천리 1511-5,전라남도 장성군 장성읍 영천월산길 11,126.780303,35.295864,전라남도 장성군 장성읍 영천리 1278-6,전라남도 장성군 장성읍 역전로 42(영천리),영업소,(유)한국렌트카,3630000,광주광역시 광산구
2019-01-01,062-682-0029,,,,,,,,18:00,09:00,,,,,,,,0,0,6,47,53,,광주광역시 광산구 내산동 338,광주광역시 광산구 쌍내길 47-34,126.828542,35.176557,광주광역시 광산구 신가동 762-5,"광주광역시 광산구 목련로 303, 2층 (신가동)",주사업장,(유)한국렌트카,3630000,광주광역시 광산구
2019-01-01,062-682-0029,,,,,,,,18:00,09:00,,,,,,,,0,0,0,9,9,,부산광역시 연제구 거제동 815-66,부산광역시 연제구 해맞이로105번길 13 (거제동),129.063244,35.174493,부산광역시 부산진구 양정동 511-3,"부산광역시 부산진구 동평로 350, 125호 (양정동)",영업소,(유)명가렌트카,3630000,광주광역시 광산구
2019-01-01,062-682-0029,,,,,,,,18:00,09:00,,,,,,,,0,0,0,0,0,,전라남도 영암군 삼호읍 삼포리 1898,전라남도 영암군 삼호읍 에프원로 2,126.687985,34.874279,전라남도 영암군 신북면 이천리 658-6,전라남도 영암군 신북면 예향로 2368(이천리),영업소,(유)명가렌트카,3630000,광주광역시 광산구
2019-01-01,062-682-0029,,,,,,,,18:00,09:00,,,,,,,,0,0,4,43,47,,광주광역시 광산구 내산동 635,광주광역시 광산구 쌍내길 212,126.828542,35.176557,광주광역시 광산구 신가동 762-5,"광주광역시 광산구 목련로 303, 2층 (신가동)",주사업장,(유)명가렌트카,3630000,광주광역시 광산구
2019-01-01,062-682-0029,,,,,,,,18:00,09:00,,,,,,,,0,0,0,27,27,,광주광역시 광산구 송학동 103-19,광주광역시 광산구 노안삼도로 765 (송학동),126.828542,35.176557,광주광역시 광산구 신가동 762-5,"광주광역시 광산구 목련로 303, 2층 (신가동)",주사업장,(유)명가렌트카,3630000,광주광역시 광산구
2019-01-01,062-682-0029,,,,,,,,18:00,09:00,,,,,,,,0,0,0,6,6,,광주광역시 광산구 우산동 1611-9,광주광역시 광산구 용아로 231 (우산동),126.828542,35.176557,광주광역시 광산구 신가동 762-5,"광주광역시 광산구 목련로 303, 2층 (신가동)",주사업장,(유)명가렌트카,3630000,광주광역시 광산구
2019-01-01,062-945-3111,,,,,,,,18:00,09:00,,,,,,,,0,0,1,3,4,,전라남도 진도군 진도읍 성내리 43-16,전라남도 진도군 진도읍 철마길 2-2 (성내리),126.262521,34.484976,전라남도 진도군 진도읍 교동리 474-6,전라남도 진도군 진도읍 서문길 6(교동리),영업소,㈜모네타렌트카,3630000,광주광역시 광산구
2019-01-01,062-945-3111,,,,,,,,18:00,09:00,,,,,,,,0,0,12,103,115,,광주광역시 광산구 송학동 402-1,광주광역시 광산구 국룡길 81-21 (송학동),126.810724,35.145408,광주광역시 광산구 신촌동 813-1,광주광역시 광산구 사암로24번길 69 (신촌동),주사업장,㈜모네타렌트카,3630000,광주광역시 광산구
2019-01-01,062-962-7008,,,,,,,,18:00,09:00,,,,,,,,0,0,0,0,0,,서울특별시 서초구 양재동 225,서울특별시 서초구 양재대로12길 25 (양재동),127.098021,37.506189,서울특별시 송파구 석촌동 1-1,"서울특별시 송파구 석촌호수로 188, 207호(석촌동, 신동아로잔뷰아파트상가)",영업소,㈜와이앤렌트카,3630000,광주광역시 광산구
2019-01-01,062-962-7008,,,,,,,,18:00,09:00,,,,,,,,0,0,0,9,9,,전라북도 전주시 덕진구 반월동 626-19,전라북도 전주시 덕진구 쪽구름로 206-1 (반월동),127.062409,35.874367,전라북도 전주시 덕진구 반월동 626-19,"전라북도 전주시 덕진구 쪽구름로 206-1, 101호 (반월동)",영업소,㈜와이앤렌트카,3630000,광주광역시 광산구
2019-01-01,062-962-7008,,,,,,,,18:00,09:00,,,,,,,,0,0,0,0,0,,제주특별자치도 제주시 용담동 859-4,제주특별자치도 제주시 용해로 80-7 (용담2동),126.502658,33.509836,제주특별자치도 제주시 용담이동 859,"제주특별자치도 제주시 용해로 80-7, 1층 (용담2동)",영업소,㈜와이앤렌트카,3630000,광주광역시 광산구
2019-01-01,062-962-7008,,,,,,,,18:00,09:00,,,,,,,,0,0,0,0,0,,제주특별자치도 제주시 용담동 859,제주특별자치도 제주시 용해로 80-7 (용담2동),126.502658,33.509836,제주특별자치도 제주시 용담이동 859,"제주특별자치도 제주시 용해로 80-7, 1층 (용담2동)",영업소,㈜와이앤렌트카,3630000,광주광역시 광산구
2019-01-01,062-962-7008,,,,,,,,18:00,09:00,,,,,,,,0,0,1,99,100,,제주특별자치도 제주시 내도동 116-1,제주특별자치도 제주시 논세길 96-9,126.502658,33.509836,제주특별자치도 제주시 용담이동 859,"제주특별자치도 제주시 용해로 80-7, 1층 (용담2동)",영업소,㈜와이앤렌트카,3630000,광주광역시 광산구
2019-01-01,062-962-7008,,,,,,,,18:00,09:00,,,,,,,,0,0,0,74,74,,광주광역시 광산구 수완동 810-31,광주광역시 광산구 임방울대로 520 (수완동),126.821318,35.205098,광주광역시 광산구 수완동 801-31,광주광역시 광산구 임방울대로 520 (수완동),주사업장,㈜와이앤렌트카,3630000,광주광역시 광산구
2019-01-01,062-381-5577,,,,,,,,18:00,09:00,,,,,,,,0,0,1,161,162,,광주광역시 광산구 우산동 218-8,광주광역시 광산구 우산천변길 67-39 (우산동),126.824628,35.144496,광주광역시 광산구 우산동 218-8,광주광역시 광산구 우산천변길 67-39 (우산동),주사업장,㈜케이렌트카,3630000,광주광역시 광산구
2019-01-01,062-381-5577,,,,,,,,18:00,09:00,,,,,,,,0,0,1,17,18,,광주광역시 서구 치평동 1294-13,광주광역시 서구 상무대로 719,126.824628,35.144496,광주광역시 광산구 우산동 218-8,광주광역시 광산구 우산천변길 67-39 (우산동),주사업장,㈜케이렌트카,3630000,광주광역시 광산구
2019-01-01,062-525-1190,,,,,,,,18:00,09:00,,,,,,,,0,0,5,76,81,,광주광역시 광산구 송학동 715,광주광역시 광산구 국룡길103-56 (송학동),126.845297,35.221071,광주광역시 광산구 장덕동 1677,"광주광역시 광산구 풍영로200번길 59, 503-1호 (장덕동)",주사업장,(유)태봉렌트카,3630000,광주광역시 광산구
2019-01-01,062-973-6636,,,,,,,,18:00,09:00,,,,,,,,0,0,1,8,9,,광주광역시 광산구 장수동 424-62,광주광역시 광산구 수남길 67 (장수동),126.843209,35.216755,광주광역시 광산구 월계동 874-10,광주광역시 광산구 첨단중앙로124번길 17 (월계동),주사업장,(유)팡팡렌트카,3630000,광주광역시 광산구
2019-01-01,062-973-6636,,,,,,,,18:00,09:00,,,,,,,,0,0,0,25,25,,광주광역시 광산구 월계동 874-4,광주광역시 광산구 첨단중앙로124번길 5-12 (월계동),126.843209,35.216755,광주광역시 광산구 월계동 874-10,광주광역시 광산구 첨단중앙로124번길 17 (월계동),주사업장,(유)팡팡렌트카,3630000,광주광역시 광산구
2019-01-01,062-973-6636,,,,,,,,18:00,09:00,,,,,,,,0,0,0,28,28,,광주광역시 광산구 월계동 874-11,광주광역시 광산구 첨단중앙로124번길 17,126.843209,35.216755,광주광역시 광산구 월계동 874-10,광주광역시 광산구 첨단중앙로124번길 17 (월계동),주사업장,(유)팡팡렌트카,3630000,광주광역시 광산구
2019-01-01,062-655-9951,,,,,,,,18:00,09:00,,,,,,,,0,0,4,94,98,,광주광역시 서구 매월동 597,광주광역시 서구 회재로 821 (매월동),126.836985,35.213380,광주광역시 광산구 월계동 771-5,"광주광역시 광산구 월계로 104, 2층 (월계동)",주사업장,㈜스타렌트카,3630000,광주광역시 광산구
2019-01-01,062-351-2215,,,,,,,,18:00,09:00,,,,,,,,0,0,4,7,11,,전라북도 순창군 순창읍 남계리 135-1,전라북도 순창군 순창읍 담순로 1421,127.150955,35.377534,전라북도 순창군 순창읍 남계리 135-1,전라북도 순창군 순창읍 담순로 1421(남계리),영업소,(주)아이렌트카,3630000,광주광역시 광산구
2019-01-01,062-351-2215,,,,,,,,18:00,09:00,,,,,,,,0,0,0,0,0,,광주광역시 광산구 수완동 801-31,광주광역시 광산구 임방울대로 520 (수완동),126.821318,35.205098,광주광역시 광산구 수완동 801-31,광주광역시 광산구 임방울대로 520 (수완동),주사업장,(주)아이렌트카,3630000,광주광역시 광산구
2019-01-01,062-351-2215,,,,,,,,18:00,09:00,,,,,,,,0,0,1,63,64,,광주광역시 광산구 도천동 122-43,광주광역시 광산구 임방울대로 611-14 (도천동),126.821318,35.205098,광주광역시 광산구 수완동 801-31,광주광역시 광산구 임방울대로 520 (수완동),주사업장,(주)아이렌트카,3630000,광주광역시 광산구
2019-01-01,062-351-2215,,,,,,,,18:00,09:00,,,,,,,,0,0,0,6,6,,광주광역시 광산구 송학동 161,광주광역시 광산구 삼도송계안길 23-23 (송학동),126.821318,35.205098,광주광역시 광산구 수완동 801-31,광주광역시 광산구 임방울대로 520 (수완동),주사업장,(주)아이렌트카,3630000,광주광역시 광산구
2019-01-01,062-571-1365,,,,,,,,18:00,09:00,,,,,,,,0,0,0,61,61,,전라남도 나주시 산포면 산제리 390-10,전라남도 나주시 산포면 세남로 1401,126.716515,35.037041,전라남도 나주시 산정동 8-5,전라남도 나주시 박정길 17 (산정동),영업소,(유)빛고을렌트카,3630000,광주광역시 광산구
2019-01-01,062-571-1365,,,,,,,,18:00,09:00,,,,,,,,0,0,2,73,75,,광주광역시 서구 매월동 213-1,광주광역시 서구 풍서좌로 165 (매월동),126.808428,35.181851,광주광역시 광산구 흑석동 113-2,"광주광역시 광산구 사암로 417, 2층 (흑석동)",주사업장,(유)빛고을렌트카,3630000,광주광역시 광산구
2019-01-01,062-232-7070,,,,,,,,18:00,09:00,,,,,,,,0,0,0,13,13,,전라남도 곡성군 오곡면 덕산리 233-2,전라남도 곡성군 오곡면 덕산리 233-2,127.105279,35.289111,전라남도 곡성군 옥과면 설옥리 350-3,전라남도 곡성군 옥과면 지방길 10 (설옥리),영업소,(유)선비렌트카,3630000,광주광역시 광산구
2019-01-01,062-232-7070,,,,,,,,18:00,09:00,,,,,,,,0,0,3,145,148,,전라남도 곡성군 오곡면 덕산리 233-1,전라남도 곡성군 오곡면 덕산리 233-1,127.105279,35.289111,전라남도 곡성군 옥과면 설옥리 350-3,전라남도 곡성군 옥과면 지방길 10 (설옥리),영업소,(유)선비렌트카,3630000,광주광역시 광산구
2019-01-01,062-232-7070,,,,,,,,18:00,09:00,,,,,,,,0,0,0,23,23,,광주광역시 광산구 도천동 123-35,광주광역시 광산구 사암로 860-30 (도천동),126.826615,35.215225,광주광역시 광산구 도천동 123-35,광주광역시 광산구 사암로 860-30 (도천동),주사업장,(유)선비렌트카,3630000,광주광역시 광산구
2019-01-01,062-261-5500,,,,,,,,18:00,09:00,,,,,,,,0,0,0,21,21,,강원도 강릉시 포남동 1110-2,강원도 강릉시 강릉대로359번길 5-14 (포남동),128.904285,37.766861,강원도 강릉시 포남동 1110-2,강원도 강릉시 강릉대로359번길 5-14 (포남동),영업소,㈜독도렌트카,3630000,광주광역시 광산구
2019-09-20,053-527-6500,권종범,없음,명절,21:00,13:00,21:00,13:00,21:00,09:00,250000,300000,120000,100000,70000,60000,50000,0,0,5,60,65,100,"대구광역시 달서구 달구벌대로251길 9(이곡동, 풍년주차빌딩)","대구광역시 달서구 달구벌대로251길 9(이곡동, 풍년주차빌딩)",128.5533611491,35.8929664554,대구광역시 북구 노원동3가 522,대구광역시 북구 팔달로15-1(노원동3가),주사업장,㈜거성운수,6270000,대구광역시
2019-09-10,032-427-7301,이*석,,,,,,,18:00,09:00,,,,,,,,0,0,0,50,50,,,인천광역시 중구 신흥동3가 7-321 외 2곳,126.652214903,37.3600642716,,인천광역시 연수구 첨단대로124번길 74(송도동),주사업장,(주)바바리안모터스,3520000,인천광역시 연수구
2019-09-10,1644-1022,이*수,,,,,,,19:00,09:00,,,,,,,,0,0,1,53,54,,,"인천광역시 남동구 호구포로14번길 66(논현고잔동, 남동공동물류센터)등 3곳",126.9903890,37.4256078,,"인천광역시 연수구 송도과학로 32, S동 1601호(송도동, 송도테크노파크IT센터)",주사업장,삼공㈜,3520000,인천광역시 연수구
2019-09-10,032-818-9923,김*선,,,,,,,19:30,09:00,,,,,,,,0,0,6,75,81,,,"인천광역시 연수구 테크노파크로 164, 송도중앙공원 주차장 (송도동) 등 3곳",126.7001747,37.4250844,,"인천광역시 연수구 선학로 101, 상가동 204호(선학동, 뉴서울1차아파트)",주사업장,㈜뉴세진렌트카,3520000,인천광역시 연수구
2019-09-10,032-822-0600,권*영,,,,,,,18:00,09:00,,,,,,,,0,0,0,4,4,,,부산광역시 동래구 명륜로112번길 85(수안동),129.090221317,35.2021065453,,부산광역시 동래구 동래로190번길 30(칠산동),영업소,㈜고고렌트카(부산),3520000,인천광역시 연수구
2019-09-10,032-822-0600,권*영,,,,,,,18:00,09:00,,,,,,,,0,0,0,9,9,,,"인천광역시 연수구 테크노파크로 164, 송도중앙공원 주차장 (송도동)",126.6715319405,37.5427721668,,"인천광역시 서구 심곡로 11, 가동 209호(심곡동, 광명17차아파트상가)",영업소,㈜고고렌트카(서인천),3520000,인천광역시 연수구
2019-09-10,032-822-0600,권*영,,,,,,,18:00,09:00,,,,,,,,0,0,2,58,60,,,"인천광역시 연수구 테크노파크로 164, 송도중앙공원 주차장 (송도동)",126.6699294,37.425576,,"인천광역시 연수구 비류대로321번길 1-8, 205호(청학동, 청산빌딩)",주사업장,㈜고고렌트카,3520000,인천광역시 연수구
2019-09-10,032-859-8013,이*석,,,,,,,18:00,09:00,,,,,,,,0,0,0,1,1,,,"서울특별시 서초구 양재대로11길 36, 금관 (양재동, 서울오토갤러리)",127.0353646,37.4617954,,서울특별시 서초구 양재대로11길 36,영업소,㈜오토셀렉트,3520000,인천광역시 연수구
2019-09-10,032-859-8013,이*석,,,,,,,18:00,09:00,,,,,,,,0,0,0,11,11,,,충청북도 청주시 서원구 장성동 2-3,127.481765064,36.5993597438,,충청북도 청주시 서원구 궁뜰로 45-2,영업소,㈜오토셀렉트,3520000,인천광역시 연수구
2019-09-10,032-859-8013,이*석,,,,,,,18:00,09:00,,,,,,,,0,0,0,76,76,,,"인천광역시 연수구 테크노파크로 164, 송도중앙공원 주차장 (송도동)",126.6297563,37.3994143,,"인천광역시 연수구 인천타워대로 323, 디동 309호(송도동, 송도센트로드)",주사업장,㈜오토셀렉트,3520000,인천광역시 연수구
2019-09-24,000-0000-0000,정근배,,연중무휴,20:00,08:00,20:00,08:00,20:00,08:00,,,,,,,,0,0,0,5,5,130,경기도 광주시 목현동 48,경기도 광주시 이배재로 223,127.2338424,37.43379382,경기도 광주시 목현동 48,경기도 광주시 이배재로 223,영업소,마춤카,5540000,경기도 광주시
2019-09-24,031-262-9792,김명인,,연중무휴,20:00,08:00,20:00,08:00,20:00,08:00,,,,,,,,0,0,1,21,22,430,경기도 광주시 장지동 485-3,경기도 광주시 장지9길 94,127.2382585358,37.4035558224,경기도 광주시 장지동 485-3,경기도 광주시 장지9길 94,영업소,스마트렌트카,5540000,경기도 광주시
2019-09-24,031-339-2119,이현수,,연중무휴,20:00,08:00,20:00,08:00,20:00,08:00,,,,,,,,0,0,3,63,66,897,경기도 광주시 장지동 224-4,경기도 광주시 포은대로 641,127.2424242,37.38382094,경기도 광주시 장지동 224-4,경기도 광주시 포은대로 641,영업소,㈜퍼스트렌트카,5540000,경기도 광주시
2019-09-24,000-0000-0000,조현전외1,,연중무휴,20:00,08:00,20:00,08:00,20:00,08:00,,,,,,,,0,0,0,44,44,790,경기도 광주시 장지동 388-20,경기도 광주시 장지9길 34-8,127.2374952,37.39890051,경기도 광주시 장지동 388-20,경기도 광주시 장지9길 34-8,영업소,서울버스㈜렌트카,5540000,경기도 광주시
2019-09-24,031-767-3245,이영옥,,연중무휴,20:00,08:00,20:00,08:00,20:00,08:00,,,,,,,,0,0,0,5,5,70,경기도 광주시 송정동 334-16,경기도 광주시 중앙로 307-13,127.2572548,37.42699565,경기도 광주시 송정동 334-4,"경기도 광주시 중앙로307, 301호",영업소,㈜위메인렌트카,5540000,경기도 광주시
2019-09-24,031-726-7474,반체운,,연중무휴,20:00,08:00,20:00,08:00,20:00,08:00,,,,,,,,0,0,0,6,6,100,경기도 광주시 오포읍 능평리 268-13,경기도 광주시 오포읍 능평로 102,127.168902,37.34984366,경기도 광주시 오포읍 능평리 268-13,경기도 광주시 오포읍 능평로 102,영업소,에이제이렌터카,5540000,경기도 광주시
2019-09-24,031-631-7008,이범용,,연중무휴,20:00,08:00,20:00,08:00,20:00,08:00,,,,,,,,0,0,1,11,12,1000,경기도 광주시 곤지암읍 곤지암리 355,경기도 광주시 곤지암읍 광여로 28,127.3488825240,37.350366,경기도 광주시 곤지암읍 곤지암리 355,경기도 광주시 곤지암읍 광여로 28,영업소,㈜씨엔씨렌트카,5540000,경기도 광주시
2019-09-24,031-762-6039,민은주,,연중무휴,20:00,08:00,20:00,08:00,20:00,08:00,,,,,110000,70000,60000,0,0,1,49,50,1350,경기도 광주시 오포읍 양벌리 204-2,경기도 광주시 오포읍 마루들길35번길 34,127.2457892493,37.3681591989,경기도 광주시 오포읍 양벌리 948,경기도 광주시 오포읍 양벌로 353번길 3,주사업장,㈜블루렌트카,5540000,경기도 광주시
2019-09-24,031-761-5484,박병순,월드렌트카.com,연중무휴,20:00,08:00,20:00,08:00,20:00,08:00,250000,120000,130000,130000,80000,60000,50000,0,0,3,37,40,631,경기도 광주시 오포읍 고산리 51-1,경기도 광주시 오포읍 세피내길 128,127.2424808,37.37931587,경기도 광주시 오포읍 고산리 51-1,경기도 광주시 오포읍 세피내길 128,주사업장,월드렌트카,5540000,경기도 광주시
2019-09-24,031-765-8558,이은진,yujinrentacar.com,연중무휴,20:00,08:00,20:00,08:00,20:00,08:00,,130000,130000,130000,80000,70000,50000,0,0,6,74,80,1120,경기도 광주시 쌍령동 92-1,경기도 광주시 중앙로 13-4,127.2658084,37.4048918645,경기도 광주시 쌍령동 92-1,경기도 광주시 중앙로 13-4,주사업장,유진렌트카,5540000,경기도 광주시
2019-01-01,062-430-4832,,,,,,,,18:00,09:00,,,,,,,,0,0,6,44,50,,광주광역시 서구 마륵동 178-22,광주광역시 서구 마륵동 178-22,126.805966,35.150535,광주광역시 광산구 소촌동 17-5,광주광역시 광산구 사암로69번길 22 (소촌동),주사업장,(유)퍼스트렌트카,3630000,광주광역시 광산구
2019-01-01,062-962-7008,,,,,,,,18:00,09:00,,,,,,,,0,0,0,0,0,,서울특별시 광진구 자양동 601-21,서울특별시 광진구 뚝섬로44길 24 (자양동),127.076735,37.537364,서울특별시 광진구 자양동 227-128,"서울특별시 광진구 자양번영로13길 3, 1층 (자양동)",영업소,㈜와이앤렌트카,3630000,광주광역시 광산구
2019-01-01,062-962-7008,,,,,,,,18:00,09:00,,,,,,,,0,0,0,0,0,,서울특별시 서초구 양재동 225,서울특별시 서초구 양재대로12길 25 (양재동),126.837335,37.537383,서울특별시 강서구 화곡동 379-49,"서울특별시 강서구 가로공원로 193, 1층 (화곡동, 세진빌딩)",영업소,㈜와이앤렌트카,3630000,광주광역시 광산구
2019-09-20,053-384-5454,신용경,없음,명절,21:00,13:00,21:00,13:00,21:00,09:00,250000,300000,120000,100000,70000,60000,50000,0,0,9,45,54,100,"대구광역시 달성군 논공읍 위천리 23-2,24,24-1","대구광역시 달성군 논공읍 위천리 23-2,24,24-1",128.6174985028,35.8468715666,대구광역시 수성구 황금동 757-1,"대구광역시 수성구 희망로 169-1, 2F(황금동)",주사업장,㈜준,6270000,대구광역시
2019-09-20,053-1566-5022,김현실,없음,명절,21:00,13:00,21:00,13:00,21:00,09:00,250000,300000,120000,100000,70000,60000,50000,0,0,0,54,54,100,대구광역시 동구 신천동 325-4,대구광역시 동구 신천동 325-4,128.6262200222,35.8724363152,"대구광역시 동구 신천동 292-6,1022호(유성푸르나임)","대구광역시 동구 동부로22길 48,1022호(유성푸르나임)",주사업장,㈜알앤에이,6270000,대구광역시
2019-09-20,053-425-6111,박상길,없음,명절,21:00,13:00,21:00,13:00,21:00,09:00,250000,300000,120000,100000,70000,60000,50000,0,0,8,152,160,100,대구광역시 수성구 중동 532-260,대구광역시 수성구 중동 532-260,128.6007528694,35.8615430073,"대구광역시 중구 대봉동 60-10, 108동 3층 2호","대구광역시 중구 대봉로 260, 108동 3층 2호(대봉동, 센트로팰리스)",주사업장,(주)대구렌트카,6270000,대구광역시
2019-09-20,053-382-4141,오흥덕,없음,명절,21:00,13:00,21:00,13:00,21:00,09:00,250000,300000,120000,100000,70000,60000,50000,0,0,7,50,57,100,"대구광역시 달서구 진천동 40-2,40-3,40-4,40-5","대구광역시 달서구 진천동 40-2,40-3,40-4,40-5",128.594438,35.9022722882,대구광역시 북구 산격동 724-9,대구광역시 북구 신천동로 962(산격동),주사업장,(주)대경렌트카,6270000,대구광역시
2019-09-20,053-423-0000,장성달,없음,명절,21:00,13:00,21:00,13:00,21:00,09:00,250000,300000,120000,100000,70000,60000,50000,0,0,9,98,107,100,대구광역시 수성구 청호로 483(만촌동),대구광역시 수성구 청호로 483(만촌동),128.625778,35.8412989331,대구광역시 수성구 황금동 595-1,"대구광역시 수성구 청수로31길 36, 101호(황금동)",주사업장,㈜뉴예스렌트카,6270000,대구광역시
2019-09-20,053-564-3131,송종인,없음,명절,21:00,13:00,21:00,13:00,21:00,09:00,250000,300000,120000,100000,70000,60000,50000,0,0,8,153,161,100,대구광역시 달성군 구지면 예현리764-1,대구광역시 달성군 구지면 예현리764-1,128.612193,35.8360870182,대구광역시 수성구 상동 62-4,대구광역시 수성구 수성로120(상동),주사업장,(주)뉴삼일렌트카,6270000,대구광역시
2019-09-20,053-1644-5879,권정훈,없음,명절,21:00,13:00,21:00,13:00,21:00,09:00,250000,300000,120000,100000,70000,60000,50000,0,0,1,164,165,100,대구광역시 동구 안심로 288(동호동),대구광역시 동구 안심로 288(동호동),128.7081949651,35.8282928424,대구광역시 수성구 욱수동 134,"대구광역시 수성구 유니버시아드로 350(2층, 욱수동)",주사업장,㈜지에이치엔터프라이즈,6270000,대구광역시
2019-09-20,053-290-2322,백종현,없음,명절,21:00,13:00,21:00,13:00,21:00,09:00,250000,300000,120000,100000,70000,60000,50000,0,0,6,47,53,100,대구광역시 달성군 하빈면 봉촌리 1038-2,대구광역시 달성군 하빈면 봉촌리 1038-2,128.5423261092,35.8963816687,대구광역시 북구 팔달동 222-1,"대구광역시 북구 매천로 2길 12(3F, 팔달동)",주사업장,엠에이치렌터카㈜,6270000,대구광역시
2019-09-20,053-572-8686,도수용,없음,명절,21:00,13:00,21:00,13:00,21:00,09:00,250000,300000,120000,100000,70000,60000,50000,0,0,1,54,55,100,대구광역시 달서구 장동 306-107,대구광역시 달서구 장동 306-107,128.722267,35.8721535533,대구광역시 동구 신서동 1038-6,대구광역시 동구 반야월로 305(신서동),주사업장,(주)금강렌트카,6270000,대구광역시
2019-09-20,053-939-6116,김미경,없음,명절,21:00,13:00,21:00,13:00,21:00,09:00,250000,300000,120000,100000,70000,60000,50000,0,0,0,53,53,100,대구광역시 동구 율하동 1431 모인프라자 5층 주차장,대구광역시 동구 율하동 1431 모인프라자 5층 주차장,128.5372285555,35.8740012278,대구광역시 서구 이현동 42-559,대구광역시 서구 문화로 42(이현동),주사업장,글로벌렌트카㈜,6270000,대구광역시
2019-09-20,053-568-3388,이광락,없음,명절,21:00,13:00,21:00,13:00,21:00,09:00,250000,300000,120000,100000,70000,60000,50000,0,0,28,335,363,100,대구광역시 달성군 하빈면 봉촌리1097-3,대구광역시 달성군 하빈면 봉촌리1097-3,128.543392,35.8789038578,대구광역시 서구 이현동 33-14,대구광역시 서구 북비산로 95(이현동),주사업장,(주)글로벌금오렌트카,6270000,대구광역시
2019-09-20,053-984-6674,도미령,없음,명절,21:00,13:00,21:00,13:00,21:00,09:00,250000,300000,120000,100000,70000,60000,50000,0,0,12,117,129,100,대구광역시 달서구 달구벌대로291길 91,대구광역시 달서구 달구벌대로291길 91,128.6262200222,35.8724363152,대구광역시 동구 신천동 292-6,"대구광역시 동구 동부로 22길48, 오피스텔2104호(신천동,동대구유성푸르나임)",주사업장,(주)극동오토렌탈,6270000,대구광역시
2019-09-20,053-559-0408,김원일,없음,명절,21:00,13:00,21:00,13:00,21:00,09:00,250000,300000,120000,100000,70000,60000,50000,0,0,15,146,161,100,대구광역시 달성군 현풍읍 성하리 257-2,대구광역시 달성군 현풍읍 성하리 257-2,128.491573,35.8417899662,대구광역시 달서구 호산동 719-4,대구광역시 달서구 달서대로 475(호산동),주사업장,(주)굿모닝렌트카,6270000,대구광역시
2019-09-20,053-745-2112,조석태,없음,명절,21:00,13:00,21:00,13:00,21:00,09:00,250000,300000,120000,100000,70000,60000,50000,0,0,14,159,173,100,"대구광역시 북구 국우동 737-1, 737-4, 737-5, 737-6","대구광역시 북구 국우동 737-1, 737-4, 737-5, 737-6",128.638493,35.8668737460,대구광역시 수성구 만촌동 425-1,"대구광역시 수성구 동원로 87, 2층(만촌동)",주사업장,(주)국제렌트카,6270000,대구광역시
2019-09-20,053-556-8850,김광진,없음,명절,21:00,13:00,21:00,13:00,21:00,09:00,250000,300000,120000,100000,70000,60000,50000,0,0,3,40,43,100,대구광역시 서구 상리동 505-14,대구광역시 서구 상리동 505-14,128.5471354670,35.9215518291,대구광역시 북구 태전동 625-2,대구광역시 북구 칠곡중앙대로 290(태전동),주사업장,(주)공항렌트카,6270000,대구광역시
2019-09-20,053-261-8500,나병민,없음,명절,21:00,13:00,21:00,13:00,21:00,09:00,250000,300000,120000,100000,70000,60000,50000,0,0,5,44,49,100,대구광역시 북구 서변동 1143-2,대구광역시 북구 서변로3길 57-4(서변동),128.594493,35.9219462033,대구광역시 북구 서변동 1143-2,대구광역시 북구 서변로3길 57-4(서변동),주사업장,㈜씨엔에스렌터카,6270000,대구광역시
2019-09-20,053-745-3700,김길호,없음,명절,21:00,13:00,21:00,13:00,21:00,09:00,250000,300000,120000,100000,70000,60000,50000,0,0,27,328,355,100,대구광역시 북구 침산동262-2,대구광역시 북구 침산동 262-2,128.6298511384,35.9013748281,대구광역시 동구 불로동 966,대구광역시 동구 공항로31길9-7(불로동),주사업장,고려렌트카㈜,6270000,대구광역시
2019-09-20,053-762-8870,윤광,없음,명절,21:00,13:00,21:00,13:00,21:00,09:00,250000,300000,120000,100000,70000,60000,50000,0,0,2,34,36,100,대구광역시 달성군 가창면 삼산리 898,대구광역시 달성군 가창면 삼산리 898,128.644352,35.7811311257,대구광역시 달성군 가창면 냉천리 385-4,대구광역시 달성군 가창면 가창로 768(냉천리),주사업장,(주)경원렌트카,6270000,대구광역시
2019-09-20,053-628-1153,서상기,없음,명절,21:00,13:00,21:00,13:00,21:00,09:00,250000,300000,120000,100000,70000,60000,50000,0,0,3,76,79,100,대구광역시 달서구 장기동 12-4,대구광역시 달서구 장기동 12-4,128.5581890137,35.8271055786,대구광역시 달서구 송현동 2015-9,대구광역시 달서구 앞산순환로 279(송현동),주사업장,(주)경동렌트카,6270000,대구광역시
2019-12-24,031-641-4972,,,,,,,,00:00,00:00,,,,,,,,0,0,0,4,4,,경기도 이천시 장호원읍 진암리 306-1,경기도 이천시 서동대로 8763,127.6092610098,37.1158971000,,경기도 이천시 장호원읍 서동대로 8769-1,영업소,㈜둔산렌트카,4070000,경기도 이천시
2019-09-20,053-768-2113,김종탁,없음,명절,21:00,13:00,21:00,13:00,21:00,09:00,250000,300000,120000,100000,70000,60000,50000,0,0,30,178,208,100,대구광역시 달성군 하빈면 봉촌리 578,대구광역시 달성군 하빈면 봉촌리 578,128.623926,35.8321613161,대구광역시 수성구 지산동 1054-1,대구광역시 수성구 동대구로 24(지산동),주사업장,(주)오케이렌트카,6270000,대구광역시
2019-09-20,053-259-3009,전화숙,없음,명절,21:00,13:00,21:00,13:00,21:00,09:00,250000,300000,120000,100000,70000,60000,50000,0,0,2,85,87,100,대구광역시 달서구 월성2동1788-2,대구광역시 달서구 월성2동1788-2,128.558092,35.8908685863,대구광역시 북구 노원동3가 636,대구광역시 북구 팔달로 67 (노원동3가),주사업장,(주)예스렌트카,6270000,대구광역시
2019-09-20,053-959-1001,오태석,없음,명절,21:00,13:00,21:00,13:00,21:00,09:00,250000,300000,120000,100000,70000,60000,50000,0,0,11,112,123,100,대구광역시 북구 대현로 69(대현동 161-10),대구광역시 북구 대현로 69(대현동 161-10),128.607157,35.8838491883,대구광역시 북구 대현동 161-10,대구광역시 북구 대현로 69(대현동 161-10),주사업장,영일렌트카㈜,6270000,대구광역시
2019-09-20,053-210-5230,배수경,없음,명절,21:00,13:00,21:00,13:00,21:00,09:00,250000,300000,120000,100000,70000,60000,50000,0,0,6,57,63,100,"대구광역시 북구 노원로 139-6, 2층 주차장(노원동3가)","대구광역시 북구 노원로 139-6, 2층 주차장(노원동3가)",128.5756723094,35.8982231826,대구광역시 북구 노원동3가 34-11,"대구광역시 북구 노원로 139-6(5층,노원동3가)",주사업장,(주)에이치씨렌트카,6270000,대구광역시
2019-09-20,053-745-5550,박채은,없음,명절,21:00,13:00,21:00,13:00,21:00,09:00,250000,300000,120000,100000,70000,60000,50000,0,0,2,65,67,100,"대구광역시 달서구 이곡서로 25, 5층(이곡동, 청우주차빌딩 옥상)","대구광역시 달서구 이곡서로 25, 5층(이곡동, 청우주차빌딩 옥상)",128.5415576493,35.8681675656,대구광역시 서구 중리동 292-15,대구광역시 서구 국채보상로 94(중리동),주사업장,㈜에이치렌트카,6270000,대구광역시
2019-09-20,053-751-8777,노안석,없음,명절,21:00,13:00,21:00,13:00,21:00,09:00,250000,300000,120000,100000,70000,60000,50000,0,0,10,40,50,100,"대구광역시 수성구 범어동 1-9,17","대구광역시 수성구 범어동 1-9,17",128.6259138179,35.8665542229,대구광역시 수성구 범어동 1-9,대구광역시 수성구 국채보상로 872(범어동),주사업장,(주)아세아렌트카,6270000,대구광역시
2019-09-20,053-753-7773,남연조,없음,명절,21:00,13:00,21:00,13:00,21:00,09:00,250000,300000,120000,100000,70000,60000,50000,0,0,6,95,101,100,대구광역시 동구 신천동 367-1,대구광역시 동구 신천동 367-1,128.683894,35.8531143405,대구광역시 수성구 가천동 476-7,대구광역시 수성구 고모로 132(가천동),주사업장,㈜신화오토렌탈,6270000,대구광역시
2019-09-20,053-741-6114,윤여균,없음,명절,21:00,13:00,21:00,13:00,21:00,09:00,250000,300000,120000,100000,70000,60000,50000,0,0,6,68,74,100,대구광역시 달성군 현풍면 오산리 16-2,대구광역시 달성군 현풍면 오산리 16-2,128.6421705675,35.8942394001,대구광역시 동구 지저동 801-25,대구광역시 동구 공항로 277(지저동),주사업장,솔렌트카㈜,6270000,대구광역시
2019-09-20,053-582-6861,김칠석,없음,명절,21:00,13:00,21:00,13:00,21:00,09:00,250000,300000,120000,100000,70000,60000,50000,0,0,2,60,62,100,대구광역시 달성군 논공읍 금포리 1641,대구광역시 달성군 논공읍 금포리 1641,128.5248879733,35.8387684124,대구광역시 달서구 장동 749,대구광역시 달서구 문화회관길 289-9(장동),주사업장,(주)세븐명차렌트카,6270000,대구광역시
2019-09-20,053-252-8533,최원수,없음,명절,21:00,13:00,21:00,13:00,21:00,09:00,250000,300000,120000,100000,70000,60000,50000,0,0,9,88,97,100,대구광역시 동구 입석동 955,대구광역시 동구 입석동 955,128.592545,35.8622464687,"대구광역시 중구 남산동 654-1, 1동 301호(남산동, 반월당에스케이허브스카이)","대구광역시 중구 중앙대로 323,1동 301호(남산동, 반월당에스케이허브스카이)",주사업장,서현종합렌트카㈜,6270000,대구광역시
2019-09-20,053-474-7006,양용목,없음,명절,21:00,13:00,21:00,13:00,21:00,09:00,250000,300000,120000,100000,70000,60000,50000,0,0,11,181,192,100,대구광역시 달성군 옥포면 김흥리 1518-26,대구광역시 달성군 옥포면 김흥리 1518-26,128.589367,35.8572104719,대구광역시 중구 남산동 2111-3,대구광역시 중구 남산로2길 118-1(남산동),주사업장,(주)새한글로벌렌트카,6270000,대구광역시
2019-09-20,053-524-7703,임형동,없음,명절,21:00,13:00,21:00,13:00,21:00,09:00,250000,300000,120000,100000,70000,60000,50000,0,0,6,54,60,100,대구광역시 달성군 하빈면 동곡리 1042,대구광역시 달성군 하빈면 동곡리 1042,128.5387869930,35.8774092444,대구광역시 서구 이현동 42-35,대구광역시 서구 와룡로 489(이현동),주사업장,(주)삼천리렌트카,6270000,대구광역시
2019-09-20,053-311-9955,전대종,없음,명절,21:00,13:00,21:00,13:00,21:00,09:00,250000,300000,120000,100000,70000,60000,50000,0,0,2,66,68,100,대구광역시 수성구 수성동1가 298-2,대구광역시 수성구 수성동1가 298-2,128.6099954528,35.8399217978,대구광역시 수성구 중동 602-18,대구광역시 수성구 청수로 4길 20(중동),주사업장,(주)삼보렌트카,6270000,대구광역시
2019-09-20,053-326-1000,최영호,없음,명절,21:00,13:00,21:00,13:00,21:00,09:00,250000,300000,120000,100000,70000,60000,50000,0,0,8,191,199,100,"대구광역시 달성군 구지면 도동리 354-2,358-2","대구광역시 달성군 구지면 도동리 354-2,358-2",128.6511324389,35.8872102186,대구광역시 동구 검사동 990-25,대구광역시 동구 동촌로 86(검사동),주사업장,(주)브이아이피렌트카,6270000,대구광역시
2019-09-20,053-422-9590,이정림,없음,명절,21:00,13:00,21:00,13:00,21:00,09:00,250000,300000,120000,100000,70000,60000,50000,0,0,0,82,82,100,"대구광역시 동구 첨단로8길 5 드림타워(5F, 신서동 1147-1)","대구광역시 동구 첨단로8길 5 드림타워(5F, 신서동 1147-1)",128.632643,35.8771905195,대구광역시 동구 효목동 393-19,"대구광역시 동구 효신로 62(효목동,1층)",주사업장,㈜시원렌트카,6270000,대구광역시
2019-09-20,053-653-3700,김승택,없음,명절,21:00,13:00,21:00,13:00,21:00,09:00,250000,300000,120000,100000,70000,60000,50000,0,0,11,49,60,100,대구광역시 달서구 죽전동 280-3,대구광역시 달서구 죽전동 280-3,128.5785401970,35.8353468219,대구광역시 남구 대명동 509-2,"대구광역시 남구 대명남로 188, 3층 (대명동, 대건빌딩)",주사업장,(주)미스터렌트카,6270000,대구광역시
2019-09-20,053-523-0015,김승홍,없음,명절,21:00,13:00,21:00,13:00,21:00,09:00,250000,300000,120000,100000,70000,60000,50000,0,0,13,157,170,100,"대구광역시 달성군 다사읍 서재리180,180-2","대구광역시 달성군 다사읍 서재리180,180-2",128.540195,35.851906,"대구광역시 달서구 죽전동 279-9, 3층","대구광역시 달서구 달구벌대로 1587(죽전동 279-9, 3층)",주사업장,미르렌트카㈜,6270000,대구광역시
2019-09-20,053-322-8088,함지민,없음,명절,21:00,13:00,21:00,13:00,21:00,09:00,250000,300000,120000,100000,70000,60000,50000,0,0,3,83,86,100,대구광역시 동구 신천동 481-1번지외 16필지,대구광역시 동구 신천동 481-1번지외 16필지,128.632372,35.8776045133,대구광역시 동구 효목동 391,대구광역시 동구 동부로 182(효목동),주사업장,(주)마이카렌트,6270000,대구광역시
2019-09-20,053-639-4123,김영환,없음,명절,21:00,13:00,21:00,13:00,21:00,09:00,250000,300000,120000,100000,70000,60000,50000,0,0,7,63,70,100,대구광역시 달서구 달구벌대로 1427(장기동),대구광역시 달서구 달구벌대로 1427(장기동),128.523471,35.8495323029,대구광역시 달서구 장기동 362-33,대구광역시 달서구 달구벌대로 1427(장기동),주사업장,(주)렌트카 엠,6270000,대구광역시
2019-08-26,02-3666-1888,김종일,,,,,,,20:00,8:00,,,,,,,,0,0,16,305,321,4420,,서울특별시 양천구 신정로 165,126.8429053,37.4945537,,서울특별시 구로구 경인로 20나길 17,주사업장,㈜스카이,3160000,서울특별시 구로구
2019-08-26,02-864-0307,이동욱,,,,,,,20:00,8:00,,,,,,,,0,0,6,50,56,921,서울특별시 금천구 가산동 34-83,서울특별시 금천구 가산동 34-83,126.885458,37.498507,,"서울특별시 구로구 구로중앙로 113, 2층",주사업장,㈜카렌트카,3160000,서울특별시 구로구
2019-08-26,02-853-8050,이필남,,,,,,,20:00,9:30,,,,,,,,0,0,19,75,94,1906,,서울특별시 영등포구 국회대로 22길 20,126.8924624,37.505517,,서울특별시 구로구 새말로18길 20-7,주사업장,㈜금미렌트카,3160000,서울특별시 구로구
2019-09-20,053-719-0405,박희정,없음,명절,21:00,13:00,21:00,13:00,21:00,09:00,250000,300000,120000,100000,70000,60000,50000,0,0,0,37,37,100,경상북도 영천시 화룡동 88-3,경상북도 영천시 화룡동 88-3,128.6772623457,35.8767265903,대구광역시 동구 용계동 422,"대구광역시 동구 동촌로 346, 109동 102호(호계동, 우박백자아파트상가)",주사업장,㈜원렌터카,6270000,대구광역시
